{"version": 0.6, "generator": "Overpass API 0.7.62.8 e802775f", "osm3s": {"timestamp_osm_base": "2025-11-29T22:49:51Z", "copyright": "The data included in this document is from www.openstreetmap.org. The data is made available under ODbL."}, "elements": [{"type": "node", "id": 311860665, "lat": 45.7678089, "lon": 19.1071157}, {"type": "node", "id": 312160022, "lat": 45.7689773, "lon": 19.1067866}, {"type": "node", "id": 312160023, "lat": 45.7683885, "lon": 19.1055408}, {"type": "node", "id": 312160024, "lat": 45.7674749, "lon": 19.1066595}, {"type": "node", "id": 621515913, "lat": 45.7819769, "lon": 19.1044384}, {"type": "node", "id": 621515918, "lat": 45.7813396, "lon": 19.1091398}, {"type": "node", "id": 621515921, "lat": 45.7829608, "lon": 19.1083267}, {"type": "node", "id": 2732533562, "lat": 45.7684491, "lon": 19.1073692}, {"type": "node", "id": 2737401298, "lat": 45.7811075, "lon": 19.1046659}, {"type": "node", "id": 2737401310, "lat": 45.7808968, "lon": 19.1049095}, {"type": "node", "id": 2737420414, "lat": 45.7824134, "lon": 19.1062775}, {"type": "node", "id": 3298242022, "lat": 45.771903, "lon": 19.1173012, "tags": {"addr:city": "Sombor", "addr:housenumber": "6", "addr:postcode": "25000", "addr:street": "\u041c\u0438\u0440\u043d\u0430", "amenity": "hospital", "healthcare": "hospital", "name": "Jugolab Sombor", "phone": "+381 (025) 515-0059", "ref:RS:kucni_broj": "5163434", "website": "https://jugolab.rs/"}}, {"type": "node", "id": 4458066170, "lat": 45.9348273, "lon": 19.1659222, "tags": {"amenity": "hospital", "name": "Ambulanta Stani\u0161i\u0107"}}, {"type": "node", "id": 4839131505, "lat": 45.781059, "lon": 19.1080691}, {"type": "node", "id": 4839131508, "lat": 45.7806555, "lon": 19.1049964}, {"type": "node", "id": 4839131510, "lat": 45.7811593, "lon": 19.1046658}, {"type": "node", "id": 4839177454, "lat": 45.7809636, "lon": 19.1047694}, {"type": "node", "id": 4839177457, "lat": 45.7811702, "lon": 19.1045612}, {"type": "node", "id": 10103646647, "lat": 45.7680214, "lon": 19.1074454}, {"type": "way", "id": 28416726, "nodes": [312160022, 312160023, 312160024, 311860665, 10103646647, 2732533562, 312160022], "tags": {"amenity": "hospital", "healthcare": "hospital", "healthcare:speciality": "physiatry", "int_name": "Neuropsihijatrija", "name": "\u041d\u0435\u0443\u0440\u043e\u043f\u0441\u0438\u0445\u0438\u0458\u0430\u0442\u0440\u0438\u0458\u0430", "name:sr": "\u041d\u0435\u0443\u0440\u043e\u043f\u0441\u0438\u0445\u0438\u0458\u0430\u0442\u0440\u0438\u0458\u0430", "name:sr-Latn": "Neuropsihijatrija"}}, {"type": "way", "id": 48982531, "nodes": [621515913, 4839177457]}, {"type": "way", "id": 491823144, "nodes": [621515921, 2737420414, 621515913]}, {"type": "way", "id": 491828915, "nodes": [4839177457, 4839131510, 2737401298, 4839177454, 2737401310, 4839131508]}, {"type": "way", "id": 491828916, "nodes": [4839131508, 4839131505, 621515918, 621515921]}, {"type": "relation", "id": 7222853, "members": [{"type": "way", "ref": 48982531, "role": "outer"}, {"type": "way", "ref": 491828915, "role": "outer"}, {"type": "way", "ref": 491828916, "role": "outer"}, {"type": "way", "ref": 491823144, "role": "outer"}], "tags": {"amenity": "hospital", "contact:website": "www.bolnicasombor.org.rs", "emergency": "yes", "healthcare": "hospital", "int_name": "Opsta bolnica \u201eDr Radivoj Simonovic\u201d Sombor", "name": "\u041e\u043f\u0448\u0442\u0430 \u0431\u043e\u043b\u043d\u0438\u0446\u0430 \u201e\u0414\u0440 \u0420\u0430\u0434\u0438\u0432\u043e\u0458 \u0421\u0438\u043c\u043e\u043d\u043e\u0432\u0438\u045b\u201d \u0421\u043e\u043c\u0431\u043e\u0440", "name:en": "General Hospital \"Dr. Radivoj Simonovi\u0107\"", "name:hu": "Dr. Radivoj Simonovi\u0107 k\u00f3rh\u00e1z", "name:sr": "\u041e\u043f\u0448\u0442\u0430 \u0431\u043e\u043b\u043d\u0438\u0446\u0430 \u201e\u0414\u0440 \u0420\u0430\u0434\u0438\u0432\u043e\u0458 \u0421\u0438\u043c\u043e\u043d\u043e\u0432\u0438\u045b\u201d \u0421\u043e\u043c\u0431\u043e\u0440", "name:sr-Latn": "Op\u0161ta bolnica \u201eDr Radivoj Simonovi\u0107\u201d Sombor", "type": "multipolygon"}}]}