{
"type": "FeatureCollection",
"name": "stations2",
"crs": { "type": "name", "properties": { "name": "urn:ogc:def:crs:OGC:1.3:CRS84" } },
"features": [
{ "type": "Feature", "properties": { "Id": "0001", "Address": "ст. м. Кропоткинская (выход к Гоголевскому бульвару)", "TotalElectricPlaces": 0, "TotalOrdinaryPlaces": 12, "TotalPlaces": 12, "IsOverflow": false, "IsLocked": false }, "geometry": { "type": "Point", "coordinates": [ 37.6020183, 55.7449006 ] } },
{ "type": "Feature", "properties": { "Id": "0387", "Address": "ул. Профсоюзная, д.109, Вс.1 (ст. м. Коньково, выход №10)", "TotalElectricPlaces": 0, "TotalOrdinaryPlaces": 12, "TotalPlaces": 12, "IsOverflow": false, "IsLocked": true }, "geometry": { "type": "Point", "coordinates": [ 37.5205529, 55.6337498 ] } },
{ "type": "Feature", "properties": { "Id": "0405", "Address": "ул. Новолесная, д.1/49", "TotalElectricPlaces": 0, "TotalOrdinaryPlaces": 12, "TotalPlaces": 12, "IsOverflow": false, "IsLocked": false }, "geometry": { "type": "Point", "coordinates": [ 37.59239, 55.7812396 ] } },
{ "type": "Feature", "properties": { "Id": "0411", "Address": "ул. Селезнёвская, д.29, стр.1 (ст. м. Достоевская)", "TotalElectricPlaces": 0, "TotalOrdinaryPlaces": 18, "TotalPlaces": 18, "IsOverflow": false, "IsLocked": true }, "geometry": { "type": "Point", "coordinates": [ 37.6144726, 55.7817849 ] } },
{ "type": "Feature", "properties": { "Id": "0413", "Address": "ул. Новосущёвская, д.22, стр.8", "TotalElectricPlaces": 0, "TotalOrdinaryPlaces": 12, "TotalPlaces": 12, "IsOverflow": false, "IsLocked": false }, "geometry": { "type": "Point", "coordinates": [ 37.6044645, 55.7896632 ] } },
{ "type": "Feature", "properties": { "Id": "0414", "Address": "ул. Образцова, д.19А", "TotalElectricPlaces": 0, "TotalOrdinaryPlaces": 12, "TotalPlaces": 12, "IsOverflow": false, "IsLocked": false }, "geometry": { "type": "Point", "coordinates": [ 37.609836, 55.78921 ] } },
{ "type": "Feature", "properties": { "Id": "0003", "Address": "Гоголевский б-р (напротив д.33)", "TotalElectricPlaces": 0, "TotalOrdinaryPlaces": 12, "TotalPlaces": 12, "IsOverflow": false, "IsLocked": false }, "geometry": { "type": "Point", "coordinates": [ 37.600592777800003, 55.750918055600003 ] } },
{ "type": "Feature", "properties": { "Id": "0007", "Address": "Газетный пер., д.6", "TotalElectricPlaces": 0, "TotalOrdinaryPlaces": 30, "TotalPlaces": 30, "IsOverflow": false, "IsLocked": false }, "geometry": { "type": "Point", "coordinates": [ 37.6086772, 55.7574181 ] } },
{ "type": "Feature", "properties": { "Id": "0008", "Address": "Тверской б-р (напротив д.17, стр.1)", "TotalElectricPlaces": 0, "TotalOrdinaryPlaces": 14, "TotalPlaces": 14, "IsOverflow": false, "IsLocked": false }, "geometry": { "type": "Point", "coordinates": [ 37.601473, 55.761072 ] } },
{ "type": "Feature", "properties": { "Id": "0009", "Address": "Тверской б-р (напротив д.28)", "TotalElectricPlaces": 0, "TotalOrdinaryPlaces": 20, "TotalPlaces": 20, "IsOverflow": false, "IsLocked": false }, "geometry": { "type": "Point", "coordinates": [ 37.6052356, 55.7646115 ] } },
{ "type": "Feature", "properties": { "Id": "0010", "Address": "Страстной б-р (напротив д.8А)", "TotalElectricPlaces": 0, "TotalOrdinaryPlaces": 14, "TotalPlaces": 14, "IsOverflow": false, "IsLocked": true }, "geometry": { "type": "Point", "coordinates": [ 37.609489444399998, 55.7667105556 ] } },
{ "type": "Feature", "properties": { "Id": "0016", "Address": "ул. Мясницкая, д.10", "TotalElectricPlaces": 0, "TotalOrdinaryPlaces": 10, "TotalPlaces": 10, "IsOverflow": false, "IsLocked": false }, "geometry": { "type": "Point", "coordinates": [ 37.6316201, 55.7599141 ] } },
{ "type": "Feature", "properties": { "Id": "0018", "Address": "Чистопрудный б-р (напротив д.12, стр.1)", "TotalElectricPlaces": 0, "TotalOrdinaryPlaces": 14, "TotalPlaces": 14, "IsOverflow": false, "IsLocked": false }, "geometry": { "type": "Point", "coordinates": [ 37.645665, 55.760381 ] } },
{ "type": "Feature", "properties": { "Id": "0021", "Address": "Покровский б-р (напротив д.18, стр.18)", "TotalElectricPlaces": 0, "TotalOrdinaryPlaces": 8, "TotalPlaces": 8, "IsOverflow": false, "IsLocked": false }, "geometry": { "type": "Point", "coordinates": [ 37.647350277800001, 55.753328333299997 ] } },
{ "type": "Feature", "properties": { "Id": "0013", "Address": "Театральный пр., д.5, стр.1 (ст. м. Лубянка)", "TotalElectricPlaces": 0, "TotalOrdinaryPlaces": 14, "TotalPlaces": 14, "IsOverflow": false, "IsLocked": false }, "geometry": { "type": "Point", "coordinates": [ 37.6257601, 55.7598405 ] } },
{ "type": "Feature", "properties": { "Id": "0200", "Address": "Фрунзенская наб. (напротив д.4)", "TotalElectricPlaces": 0, "TotalOrdinaryPlaces": 16, "TotalPlaces": 16, "IsOverflow": false, "IsLocked": false }, "geometry": { "type": "Point", "coordinates": [ 37.596925, 55.733558333300003 ] } },
{ "type": "Feature", "properties": { "Id": "0201", "Address": "Фрунзенская наб. (пересеч. с 1-ой Фрунзенской ул.)", "TotalElectricPlaces": 0, "TotalOrdinaryPlaces": 32, "TotalPlaces": 32, "IsOverflow": false, "IsLocked": false }, "geometry": { "type": "Point", "coordinates": [ 37.589863888899998, 55.725747222199999 ] } },
{ "type": "Feature", "properties": { "Id": "0204", "Address": "Фрунзенская наб. (пересеч. со 2-й Фрунзенской ул.)", "TotalElectricPlaces": 0, "TotalOrdinaryPlaces": 12, "TotalPlaces": 12, "IsOverflow": false, "IsLocked": false }, "geometry": { "type": "Point", "coordinates": [ 37.5864, 55.72175 ] } },
{ "type": "Feature", "properties": { "Id": "0206", "Address": "Фрунзенская наб. (пересеч. с 3-ей Фрунзенской ул.)", "TotalElectricPlaces": 0, "TotalOrdinaryPlaces": 14, "TotalPlaces": 14, "IsOverflow": false, "IsLocked": false }, "geometry": { "type": "Point", "coordinates": [ 37.583486111100001, 55.719197222200002 ] } },
{ "type": "Feature", "properties": { "Id": "0207", "Address": "Фрунзенская наб., д.54 (пересеч. с ул. Хамовнический Вал)", "TotalElectricPlaces": 0, "TotalOrdinaryPlaces": 32, "TotalPlaces": 32, "IsOverflow": false, "IsLocked": false }, "geometry": { "type": "Point", "coordinates": [ 37.577988888900002, 55.715508333300001 ] } },
{ "type": "Feature", "properties": { "Id": "0210", "Address": "Лужнецкая наб. (пересеч. с Новолужнецким пр.)", "TotalElectricPlaces": 0, "TotalOrdinaryPlaces": 45, "TotalPlaces": 45, "IsOverflow": false, "IsLocked": false }, "geometry": { "type": "Point", "coordinates": [ 37.5695222222, 55.712558333300002 ] } },
{ "type": "Feature", "properties": { "Id": "0100", "Address": "Зубовский б-р, д.5, стр.1 (ст. м. Парк Культуры)", "TotalElectricPlaces": 0, "TotalOrdinaryPlaces": 51, "TotalPlaces": 51, "IsOverflow": true, "IsLocked": false }, "geometry": { "type": "Point", "coordinates": [ 37.5937289, 55.7351049 ] } },
{ "type": "Feature", "properties": { "Id": "0202", "Address": "Комсомольский пр-т (пересеч. с 1-ой Фрунзенской ул.)", "TotalElectricPlaces": 0, "TotalOrdinaryPlaces": 12, "TotalPlaces": 12, "IsOverflow": false, "IsLocked": false }, "geometry": { "type": "Point", "coordinates": [ 37.583821, 55.727509 ] } },
{ "type": "Feature", "properties": { "Id": "0203", "Address": "Комсомольский пр-т (пересеч. со 2-ой Фрунзенской ул.)", "TotalElectricPlaces": 0, "TotalOrdinaryPlaces": 9, "TotalPlaces": 9, "IsOverflow": false, "IsLocked": false }, "geometry": { "type": "Point", "coordinates": [ 37.579058, 55.724242 ] } },
{ "type": "Feature", "properties": { "Id": "0205", "Address": "Комсомольский пр-т (пересеч. с 3-ей Фрунзенской ул.)", "TotalElectricPlaces": 0, "TotalOrdinaryPlaces": 12, "TotalPlaces": 12, "IsOverflow": false, "IsLocked": false }, "geometry": { "type": "Point", "coordinates": [ 37.575858, 55.721972 ] } },
{ "type": "Feature", "properties": { "Id": "0209", "Address": "ст. м. Спортивная (выход №1)", "TotalElectricPlaces": 24, "TotalOrdinaryPlaces": 30, "TotalPlaces": 54, "IsOverflow": false, "IsLocked": false }, "geometry": { "type": "Point", "coordinates": [ 37.561961, 55.721468 ] } },
{ "type": "Feature", "properties": { "Id": "0211", "Address": "ст. м. Воробьёвы горы (Лужники)", "TotalElectricPlaces": 0, "TotalOrdinaryPlaces": 36, "TotalPlaces": 36, "IsOverflow": false, "IsLocked": false }, "geometry": { "type": "Point", "coordinates": [ 37.56075, 55.71227 ] } },
{ "type": "Feature", "properties": { "Id": "0216", "Address": "ул. Большая Пироговская (напротив д.6/25)", "TotalElectricPlaces": 0, "TotalOrdinaryPlaces": 12, "TotalPlaces": 12, "IsOverflow": false, "IsLocked": false }, "geometry": { "type": "Point", "coordinates": [ 37.581356, 55.736464 ] } },
{ "type": "Feature", "properties": { "Id": "0215", "Address": "ул. Большая Пироговская (напротив д.15/18, стр.1)", "TotalElectricPlaces": 0, "TotalOrdinaryPlaces": 21, "TotalPlaces": 21, "IsOverflow": false, "IsLocked": false }, "geometry": { "type": "Point", "coordinates": [ 37.575489, 55.733867 ] } },
{ "type": "Feature", "properties": { "Id": "0218", "Address": "Комсомольский пр-т, д.28 (ст. м. Фрунзенская)", "TotalElectricPlaces": 0, "TotalOrdinaryPlaces": 24, "TotalPlaces": 24, "IsOverflow": false, "IsLocked": false }, "geometry": { "type": "Point", "coordinates": [ 37.580778, 55.726481 ] } },
{ "type": "Feature", "properties": { "Id": "0214", "Address": "ул. Большая Пироговская, д.2, стр.4", "TotalElectricPlaces": 0, "TotalOrdinaryPlaces": 12, "TotalPlaces": 12, "IsOverflow": false, "IsLocked": false }, "geometry": { "type": "Point", "coordinates": [ 37.569297, 55.731139 ] } },
{ "type": "Feature", "properties": { "Id": "0213", "Address": "ул. Большая Пироговская (на площади Новодевичьего Монастыря)", "TotalElectricPlaces": 0, "TotalOrdinaryPlaces": 18, "TotalPlaces": 18, "IsOverflow": false, "IsLocked": false }, "geometry": { "type": "Point", "coordinates": [ 37.559608, 55.726908 ] } },
{ "type": "Feature", "properties": { "Id": "0219", "Address": "Комсомольский пр-т, д.48/22 (дублёр, пересеч. с ул. Хамовнический Вал)", "TotalElectricPlaces": 0, "TotalOrdinaryPlaces": 12, "TotalPlaces": 12, "IsOverflow": false, "IsLocked": false }, "geometry": { "type": "Point", "coordinates": [ 37.570481, 55.719322 ] } },
{ "type": "Feature", "properties": { "Id": "0120", "Address": "ул. Садовая-Самотечная, д.8", "TotalElectricPlaces": 0, "TotalOrdinaryPlaces": 12, "TotalPlaces": 12, "IsOverflow": false, "IsLocked": false }, "geometry": { "type": "Point", "coordinates": [ 37.614186, 55.773194 ] } },
{ "type": "Feature", "properties": { "Id": "0125", "Address": "Большая Сухаревская пл., д.2 (ст. м. Сухаревская)", "TotalElectricPlaces": 0, "TotalOrdinaryPlaces": 24, "TotalPlaces": 24, "IsOverflow": false, "IsLocked": false }, "geometry": { "type": "Point", "coordinates": [ 37.632814, 55.772192 ] } },
{ "type": "Feature", "properties": { "Id": "0415", "Address": "ул. Сущёвский Вал, д.2", "TotalElectricPlaces": 0, "TotalOrdinaryPlaces": 21, "TotalPlaces": 21, "IsOverflow": false, "IsLocked": false }, "geometry": { "type": "Point", "coordinates": [ 37.5905396, 55.7914268 ] } },
{ "type": "Feature", "properties": { "Id": "0452", "Address": "ст. м. Ботанический сад (выход №4)", "TotalElectricPlaces": 0, "TotalOrdinaryPlaces": 24, "TotalPlaces": 24, "IsOverflow": false, "IsLocked": false }, "geometry": { "type": "Point", "coordinates": [ 37.637625, 55.843473 ] } },
{ "type": "Feature", "properties": { "Id": "0421", "Address": "ул. Советской Армии, д.8", "TotalElectricPlaces": 0, "TotalOrdinaryPlaces": 15, "TotalPlaces": 15, "IsOverflow": false, "IsLocked": false }, "geometry": { "type": "Point", "coordinates": [ 37.6170397, 55.787541 ] } },
{ "type": "Feature", "properties": { "Id": "0423", "Address": "ул. Шереметьевская, д.27", "TotalElectricPlaces": 0, "TotalOrdinaryPlaces": 21, "TotalPlaces": 21, "IsOverflow": false, "IsLocked": false }, "geometry": { "type": "Point", "coordinates": [ 37.6155506, 55.8032637 ] } },
{ "type": "Feature", "properties": { "Id": "0431", "Address": "Олимпийский пр-т, д.22", "TotalElectricPlaces": 0, "TotalOrdinaryPlaces": 12, "TotalPlaces": 12, "IsOverflow": false, "IsLocked": false }, "geometry": { "type": "Point", "coordinates": [ 37.6225279, 55.7861479 ] } },
{ "type": "Feature", "properties": { "Id": "0432", "Address": "ул. Щепкина, д.61/2, стр.22", "TotalElectricPlaces": 0, "TotalOrdinaryPlaces": 12, "TotalPlaces": 12, "IsOverflow": false, "IsLocked": false }, "geometry": { "type": "Point", "coordinates": [ 37.6290169, 55.7886534 ] } },
{ "type": "Feature", "properties": { "Id": "0440", "Address": "пр-т Мира, д.40 (рядом со ст. м. Проспект Мира (кольцевая))", "TotalElectricPlaces": 0, "TotalOrdinaryPlaces": 24, "TotalPlaces": 24, "IsOverflow": false, "IsLocked": false }, "geometry": { "type": "Point", "coordinates": [ 37.6334722, 55.7804054 ] } },
{ "type": "Feature", "properties": { "Id": "0442", "Address": "пр-т Мира, д.69, стр.1", "TotalElectricPlaces": 0, "TotalOrdinaryPlaces": 12, "TotalPlaces": 12, "IsOverflow": false, "IsLocked": false }, "geometry": { "type": "Point", "coordinates": [ 37.6347031, 55.7865412 ] } },
{ "type": "Feature", "properties": { "Id": "0451", "Address": "ул. Сельскохозяйственная, д.17, к.1", "TotalElectricPlaces": 0, "TotalOrdinaryPlaces": 12, "TotalPlaces": 12, "IsOverflow": false, "IsLocked": false }, "geometry": { "type": "Point", "coordinates": [ 37.6365455, 55.837238 ] } },
{ "type": "Feature", "properties": { "Id": "0460", "Address": "ул. Правды, д.4/19", "TotalElectricPlaces": 0, "TotalOrdinaryPlaces": 12, "TotalPlaces": 12, "IsOverflow": false, "IsLocked": false }, "geometry": { "type": "Point", "coordinates": [ 37.5765806, 55.7835199 ] } },
{ "type": "Feature", "properties": { "Id": "0461", "Address": "Орликов пер., д.3, стр.7 (со стороны пр-та Академика Сахарова)", "TotalElectricPlaces": 0, "TotalOrdinaryPlaces": 12, "TotalPlaces": 12, "IsOverflow": false, "IsLocked": false }, "geometry": { "type": "Point", "coordinates": [ 37.6465038, 55.7720802 ] } },
{ "type": "Feature", "properties": { "Id": "0462", "Address": "Рязанский пр., Комсомольская пл., д.2", "TotalElectricPlaces": 0, "TotalOrdinaryPlaces": 12, "TotalPlaces": 12, "IsOverflow": false, "IsLocked": false }, "geometry": { "type": "Point", "coordinates": [ 37.6548139, 55.7723539 ] } },
{ "type": "Feature", "properties": { "Id": "0483", "Address": "Комсомольская пл., д.5", "TotalElectricPlaces": 0, "TotalOrdinaryPlaces": 32, "TotalPlaces": 32, "IsOverflow": false, "IsLocked": false }, "geometry": { "type": "Point", "coordinates": [ 37.6591375, 55.7766712 ] } },
{ "type": "Feature", "properties": { "Id": "0430", "Address": "Олимпийский пр-т, д.14", "TotalElectricPlaces": 0, "TotalOrdinaryPlaces": 21, "TotalPlaces": 21, "IsOverflow": false, "IsLocked": true }, "geometry": { "type": "Point", "coordinates": [ 37.6225146, 55.7791071 ] } },
{ "type": "Feature", "properties": { "Id": "0317", "Address": "Ленинский пр-т, д.33", "TotalElectricPlaces": 0, "TotalOrdinaryPlaces": 12, "TotalPlaces": 12, "IsOverflow": false, "IsLocked": false }, "geometry": { "type": "Point", "coordinates": [ 37.587744, 55.712075 ] } },
{ "type": "Feature", "properties": { "Id": "0351", "Address": "ул. Дмитрия Ульянова, д.22, к.1 (ст. м. Академическая)", "TotalElectricPlaces": 21, "TotalOrdinaryPlaces": 18, "TotalPlaces": 39, "IsOverflow": false, "IsLocked": false }, "geometry": { "type": "Point", "coordinates": [ 37.572725, 55.6880358 ] } },
{ "type": "Feature", "properties": { "Id": "0439", "Address": "пр-т Мира, д.11", "TotalElectricPlaces": 0, "TotalOrdinaryPlaces": 12, "TotalPlaces": 12, "IsOverflow": false, "IsLocked": false }, "geometry": { "type": "Point", "coordinates": [ 37.6320952, 55.7761657 ] } },
{ "type": "Feature", "properties": { "Id": "0250", "Address": "Пресненская наб., д.6, стр.2 (Москва-Сити, башня Империя)", "TotalElectricPlaces": 21, "TotalOrdinaryPlaces": 14, "TotalPlaces": 35, "IsOverflow": false, "IsLocked": false }, "geometry": { "type": "Point", "coordinates": [ 37.5393069, 55.7481479 ] } },
{ "type": "Feature", "properties": { "Id": "0391", "Address": "Нахимовский пр-т, д.11 (ст. м. Нахимовский пр-т, выход №4)", "TotalElectricPlaces": 0, "TotalOrdinaryPlaces": 13, "TotalPlaces": 13, "IsOverflow": false, "IsLocked": false }, "geometry": { "type": "Point", "coordinates": [ 37.6066403, 55.6636625 ] } },
{ "type": "Feature", "properties": { "Id": "0396", "Address": "ул. Дмитрия Ульянова, д.46", "TotalElectricPlaces": 0, "TotalOrdinaryPlaces": 12, "TotalPlaces": 12, "IsOverflow": false, "IsLocked": false }, "geometry": { "type": "Point", "coordinates": [ 37.5953863, 55.6794909 ] } },
{ "type": "Feature", "properties": { "Id": "0338", "Address": "ул. Новаторов (пересечение с ул. Воронцовские Пруды)", "TotalElectricPlaces": 0, "TotalOrdinaryPlaces": 15, "TotalPlaces": 15, "IsOverflow": false, "IsLocked": false }, "geometry": { "type": "Point", "coordinates": [ 37.5268164, 55.6667781 ] } },
{ "type": "Feature", "properties": { "Id": "0337", "Address": "ул. Академика Пилюгина, д.18", "TotalElectricPlaces": 0, "TotalOrdinaryPlaces": 12, "TotalPlaces": 12, "IsOverflow": false, "IsLocked": false }, "geometry": { "type": "Point", "coordinates": [ 37.5341468, 55.668303 ] } },
{ "type": "Feature", "properties": { "Id": "0328", "Address": "Балаклавский пр-т, д.16 (ст. м. Чертановская, выход №3)", "TotalElectricPlaces": 0, "TotalOrdinaryPlaces": 18, "TotalPlaces": 18, "IsOverflow": false, "IsLocked": false }, "geometry": { "type": "Point", "coordinates": [ 37.604728, 55.6416745 ] } },
{ "type": "Feature", "properties": { "Id": "0307", "Address": "ул. Вавилова, д.24", "TotalElectricPlaces": 0, "TotalOrdinaryPlaces": 12, "TotalPlaces": 12, "IsOverflow": false, "IsLocked": false }, "geometry": { "type": "Point", "coordinates": [ 37.5775101, 55.7012679 ] } },
{ "type": "Feature", "properties": { "Id": "0208", "Address": "ул. 10-летия Октября (напротив д.29, к.3, ст. м. Спортивная, выход №2)", "TotalElectricPlaces": 0, "TotalOrdinaryPlaces": 18, "TotalPlaces": 18, "IsOverflow": false, "IsLocked": false }, "geometry": { "type": "Point", "coordinates": [ 37.565242, 55.723833 ] } },
{ "type": "Feature", "properties": { "Id": "0028", "Address": "ул. Пушечная, д.11", "TotalElectricPlaces": 0, "TotalOrdinaryPlaces": 12, "TotalPlaces": 12, "IsOverflow": false, "IsLocked": false }, "geometry": { "type": "Point", "coordinates": [ 37.6248436, 55.7606867 ] } },
{ "type": "Feature", "properties": { "Id": "0301", "Address": "пр-т Вернадского, ост. Университетский пр-т", "TotalElectricPlaces": 0, "TotalOrdinaryPlaces": 12, "TotalPlaces": 12, "IsOverflow": false, "IsLocked": false }, "geometry": { "type": "Point", "coordinates": [ 37.545765, 55.700717 ] } },
{ "type": "Feature", "properties": { "Id": "0345", "Address": "ул. Косыгина, д.2, стр.19", "TotalElectricPlaces": 0, "TotalOrdinaryPlaces": 12, "TotalPlaces": 12, "IsOverflow": false, "IsLocked": false }, "geometry": { "type": "Point", "coordinates": [ 37.576594, 55.708218 ] } },
{ "type": "Feature", "properties": { "Id": "0344", "Address": "ул. Косыгина, д.8, стр.2", "TotalElectricPlaces": 0, "TotalOrdinaryPlaces": 12, "TotalPlaces": 12, "IsOverflow": false, "IsLocked": false }, "geometry": { "type": "Point", "coordinates": [ 37.564743, 55.706876 ] } },
{ "type": "Feature", "properties": { "Id": "0350", "Address": "ул. Вавилова, д.55/7", "TotalElectricPlaces": 0, "TotalOrdinaryPlaces": 21, "TotalPlaces": 21, "IsOverflow": false, "IsLocked": false }, "geometry": { "type": "Point", "coordinates": [ 37.562443, 55.691614 ] } },
{ "type": "Feature", "properties": { "Id": "0362", "Address": "Нахимовский пр-т, д.46 (ст. м. Профсоюзная, выход №3)", "TotalElectricPlaces": 0, "TotalOrdinaryPlaces": 21, "TotalPlaces": 21, "IsOverflow": false, "IsLocked": false }, "geometry": { "type": "Point", "coordinates": [ 37.561994, 55.678516 ] } },
{ "type": "Feature", "properties": { "Id": "0023", "Address": "Москворецкая наб. (Китайгородский пр., д.9, стр.2)", "TotalElectricPlaces": 0, "TotalOrdinaryPlaces": 27, "TotalPlaces": 27, "IsOverflow": false, "IsLocked": false }, "geometry": { "type": "Point", "coordinates": [ 37.632794, 55.749635 ] } },
{ "type": "Feature", "properties": { "Id": "0038", "Address": "ул. Маросейка, д.9", "TotalElectricPlaces": 0, "TotalOrdinaryPlaces": 12, "TotalPlaces": 12, "IsOverflow": false, "IsLocked": false }, "geometry": { "type": "Point", "coordinates": [ 37.634929, 55.7576991 ] } },
{ "type": "Feature", "properties": { "Id": "0077", "Address": "ул. Пятницкая, д.37", "TotalElectricPlaces": 0, "TotalOrdinaryPlaces": 10, "TotalPlaces": 10, "IsOverflow": false, "IsLocked": false }, "geometry": { "type": "Point", "coordinates": [ 37.62838, 55.73876 ] } },
{ "type": "Feature", "properties": { "Id": "0119", "Address": "ул. Краснопролетарская (напротив д.2/4, стр.3)", "TotalElectricPlaces": 0, "TotalOrdinaryPlaces": 12, "TotalPlaces": 12, "IsOverflow": false, "IsLocked": false }, "geometry": { "type": "Point", "coordinates": [ 37.6086074, 55.7735332 ] } },
{ "type": "Feature", "properties": { "Id": "0073", "Address": "ул. Большая Полянка, д.33/41, стр.1", "TotalElectricPlaces": 0, "TotalOrdinaryPlaces": 18, "TotalPlaces": 18, "IsOverflow": false, "IsLocked": false }, "geometry": { "type": "Point", "coordinates": [ 37.6195157, 55.7362414 ] } },
{ "type": "Feature", "properties": { "Id": "0246", "Address": "Кутузовский пр-т, д.7/4, стр.1", "TotalElectricPlaces": 0, "TotalOrdinaryPlaces": 12, "TotalPlaces": 12, "IsOverflow": false, "IsLocked": false }, "geometry": { "type": "Point", "coordinates": [ 37.5622227, 55.7490298 ] } },
{ "type": "Feature", "properties": { "Id": "0363", "Address": "Нахимовский пр-т, д.24", "TotalElectricPlaces": 0, "TotalOrdinaryPlaces": 12, "TotalPlaces": 12, "IsOverflow": false, "IsLocked": true }, "geometry": { "type": "Point", "coordinates": [ 37.5838691, 55.6712381 ] } },
{ "type": "Feature", "properties": { "Id": "0364", "Address": "ул. Марии Ульяновой, д.16", "TotalElectricPlaces": 0, "TotalOrdinaryPlaces": 12, "TotalPlaces": 12, "IsOverflow": false, "IsLocked": false }, "geometry": { "type": "Point", "coordinates": [ 37.5201069, 55.6836121 ] } },
{ "type": "Feature", "properties": { "Id": "0365", "Address": "ул. Гарибальди, д.1А", "TotalElectricPlaces": 0, "TotalOrdinaryPlaces": 12, "TotalPlaces": 12, "IsOverflow": false, "IsLocked": false }, "geometry": { "type": "Point", "coordinates": [ 37.5326129, 55.6787267 ] } },
{ "type": "Feature", "properties": { "Id": "0367", "Address": "Севастопольский пр-т, д.28, к.4", "TotalElectricPlaces": 0, "TotalOrdinaryPlaces": 12, "TotalPlaces": 12, "IsOverflow": false, "IsLocked": false }, "geometry": { "type": "Point", "coordinates": [ 37.5766175, 55.6620326 ] } },
{ "type": "Feature", "properties": { "Id": "0368", "Address": "Симферопольский б-р, д.4", "TotalElectricPlaces": 0, "TotalOrdinaryPlaces": 12, "TotalPlaces": 12, "IsOverflow": false, "IsLocked": false }, "geometry": { "type": "Point", "coordinates": [ 37.6080312, 55.6592363 ] } },
{ "type": "Feature", "properties": { "Id": "0370", "Address": "ул. Воронцовские Пруды, д.3", "TotalElectricPlaces": 0, "TotalOrdinaryPlaces": 12, "TotalPlaces": 12, "IsOverflow": false, "IsLocked": false }, "geometry": { "type": "Point", "coordinates": [ 37.5389143, 55.6649089 ] } },
{ "type": "Feature", "properties": { "Id": "0371", "Address": "ул. Новочерёмушкинская, д.71/32", "TotalElectricPlaces": 0, "TotalOrdinaryPlaces": 12, "TotalPlaces": 12, "IsOverflow": false, "IsLocked": false }, "geometry": { "type": "Point", "coordinates": [ 37.5595989, 55.6608021 ] } },
{ "type": "Feature", "properties": { "Id": "0029", "Address": "ул. Тверская, д.8", "TotalElectricPlaces": 0, "TotalOrdinaryPlaces": 20, "TotalPlaces": 20, "IsOverflow": false, "IsLocked": false }, "geometry": { "type": "Point", "coordinates": [ 37.60962, 55.762079 ] } },
{ "type": "Feature", "properties": { "Id": "0357", "Address": "Ломоносовский пр-т (дублёр), д.27", "TotalElectricPlaces": 0, "TotalOrdinaryPlaces": 12, "TotalPlaces": 12, "IsOverflow": false, "IsLocked": false }, "geometry": { "type": "Point", "coordinates": [ 37.523769, 55.699342 ] } },
{ "type": "Feature", "properties": { "Id": "0043", "Address": "Большой Патриарший пер., д.7", "TotalElectricPlaces": 0, "TotalOrdinaryPlaces": 12, "TotalPlaces": 12, "IsOverflow": false, "IsLocked": false }, "geometry": { "type": "Point", "coordinates": [ 37.59311, 55.763584 ] } },
{ "type": "Feature", "properties": { "Id": "0374", "Address": "ул. Обручева, д.33А", "TotalElectricPlaces": 0, "TotalOrdinaryPlaces": 12, "TotalPlaces": 12, "IsOverflow": false, "IsLocked": false }, "geometry": { "type": "Point", "coordinates": [ 37.5529893, 55.6512748 ] } },
{ "type": "Feature", "properties": { "Id": "0375", "Address": "ул. Обручева, д.65/54", "TotalElectricPlaces": 0, "TotalOrdinaryPlaces": 12, "TotalPlaces": 12, "IsOverflow": false, "IsLocked": false }, "geometry": { "type": "Point", "coordinates": [ 37.5639941, 55.6502405 ] } },
{ "type": "Feature", "properties": { "Id": "0376", "Address": "Балаклавский пр-т, д.34, к.1", "TotalElectricPlaces": 0, "TotalOrdinaryPlaces": 12, "TotalPlaces": 12, "IsOverflow": false, "IsLocked": false }, "geometry": { "type": "Point", "coordinates": [ 37.5820766, 55.6450878 ] } },
{ "type": "Feature", "properties": { "Id": "0381", "Address": "ул. Академика Волгина, д.21", "TotalElectricPlaces": 0, "TotalOrdinaryPlaces": 12, "TotalPlaces": 12, "IsOverflow": false, "IsLocked": false }, "geometry": { "type": "Point", "coordinates": [ 37.5137244, 55.6477514 ] } },
{ "type": "Feature", "properties": { "Id": "0384", "Address": "ул. Введенского, д.32", "TotalElectricPlaces": 0, "TotalOrdinaryPlaces": 15, "TotalPlaces": 15, "IsOverflow": false, "IsLocked": false }, "geometry": { "type": "Point", "coordinates": [ 37.5308314, 55.634235 ] } },
{ "type": "Feature", "properties": { "Id": "0385", "Address": "ул. Островитянова, д.7", "TotalElectricPlaces": 0, "TotalOrdinaryPlaces": 12, "TotalPlaces": 12, "IsOverflow": false, "IsLocked": false }, "geometry": { "type": "Point", "coordinates": [ 37.4953587, 55.6440884 ] } },
{ "type": "Feature", "properties": { "Id": "0420", "Address": "ул. Советской Армии, д.2, стр.1", "TotalElectricPlaces": 0, "TotalOrdinaryPlaces": 12, "TotalPlaces": 12, "IsOverflow": false, "IsLocked": false }, "geometry": { "type": "Point", "coordinates": [ 37.6163822, 55.785259 ] } },
{ "type": "Feature", "properties": { "Id": "0441", "Address": "пр-т Мира, д.41, стр.2", "TotalElectricPlaces": 0, "TotalOrdinaryPlaces": 21, "TotalPlaces": 21, "IsOverflow": false, "IsLocked": false }, "geometry": { "type": "Point", "coordinates": [ 37.6317848, 55.7815506 ] } },
{ "type": "Feature", "properties": { "Id": "0444", "Address": "пр-т Мира, д.111 (ст. м. ВДНХ, выход к Звёздному бульвару)", "TotalElectricPlaces": 0, "TotalOrdinaryPlaces": 24, "TotalPlaces": 24, "IsOverflow": false, "IsLocked": false }, "geometry": { "type": "Point", "coordinates": [ 37.6393391, 55.8195275 ] } },
{ "type": "Feature", "properties": { "Id": "0445", "Address": "ул. Сергея Эйзенштейна, д.1", "TotalElectricPlaces": 0, "TotalOrdinaryPlaces": 12, "TotalPlaces": 12, "IsOverflow": false, "IsLocked": true }, "geometry": { "type": "Point", "coordinates": [ 37.647529, 55.8277664 ] } },
{ "type": "Feature", "properties": { "Id": "0446", "Address": "пр-т Мира, д.163", "TotalElectricPlaces": 0, "TotalOrdinaryPlaces": 12, "TotalPlaces": 12, "IsOverflow": false, "IsLocked": false }, "geometry": { "type": "Point", "coordinates": [ 37.6541501, 55.8339685 ] } },
{ "type": "Feature", "properties": { "Id": "0470", "Address": "ул. Академика Королёва, д.8А", "TotalElectricPlaces": 0, "TotalOrdinaryPlaces": 21, "TotalPlaces": 21, "IsOverflow": false, "IsLocked": false }, "geometry": { "type": "Point", "coordinates": [ 37.623526, 55.8217153 ] } },
{ "type": "Feature", "properties": { "Id": "0480", "Address": "ул. Яблочкова, д.25", "TotalElectricPlaces": 0, "TotalOrdinaryPlaces": 12, "TotalPlaces": 12, "IsOverflow": false, "IsLocked": true }, "geometry": { "type": "Point", "coordinates": [ 37.5802, 55.82188 ] } },
{ "type": "Feature", "properties": { "Id": "0481", "Address": "ул. Милашенкова, д.12Д", "TotalElectricPlaces": 0, "TotalOrdinaryPlaces": 12, "TotalPlaces": 12, "IsOverflow": false, "IsLocked": false }, "geometry": { "type": "Point", "coordinates": [ 37.5805768, 55.8278585 ] } },
{ "type": "Feature", "properties": { "Id": "0482", "Address": "ул. Руставели, д.12/13", "TotalElectricPlaces": 0, "TotalOrdinaryPlaces": 12, "TotalPlaces": 12, "IsOverflow": false, "IsLocked": false }, "geometry": { "type": "Point", "coordinates": [ 37.5942708, 55.8133394 ] } },
{ "type": "Feature", "properties": { "Id": "0389", "Address": "ул. 26-ти Бакинских Комиссаров, д.2Б", "TotalElectricPlaces": 0, "TotalOrdinaryPlaces": 15, "TotalPlaces": 15, "IsOverflow": false, "IsLocked": false }, "geometry": { "type": "Point", "coordinates": [ 37.4954392, 55.6558941 ] } },
{ "type": "Feature", "properties": { "Id": "0464", "Address": "ул. Ботаническая, д.4, стр.6", "TotalElectricPlaces": 0, "TotalOrdinaryPlaces": 45, "TotalPlaces": 45, "IsOverflow": false, "IsLocked": false }, "geometry": { "type": "Point", "coordinates": [ 37.6010653, 55.8302838 ] } },
{ "type": "Feature", "properties": { "Id": "0465", "Address": "1-я Останкинская ул., д.1", "TotalElectricPlaces": 0, "TotalOrdinaryPlaces": 30, "TotalPlaces": 30, "IsOverflow": false, "IsLocked": false }, "geometry": { "type": "Point", "coordinates": [ 37.617075, 55.8243764 ] } },
{ "type": "Feature", "properties": { "Id": "0466", "Address": "Продольный пр. (у главного входа ВДНХ)", "TotalElectricPlaces": 0, "TotalOrdinaryPlaces": 48, "TotalPlaces": 48, "IsOverflow": true, "IsLocked": false }, "geometry": { "type": "Point", "coordinates": [ 37.6391911, 55.825363 ] } },
{ "type": "Feature", "properties": { "Id": "0469", "Address": "ул. Академика Королёва, д.15, к.2", "TotalElectricPlaces": 0, "TotalOrdinaryPlaces": 12, "TotalPlaces": 12, "IsOverflow": false, "IsLocked": false }, "geometry": { "type": "Point", "coordinates": [ 37.6159792, 55.8189299 ] } },
{ "type": "Feature", "properties": { "Id": "0080", "Address": "ул. Пятницкая, д.2/38", "TotalElectricPlaces": 0, "TotalOrdinaryPlaces": 12, "TotalPlaces": 12, "IsOverflow": false, "IsLocked": false }, "geometry": { "type": "Point", "coordinates": [ 37.6265178, 55.7456921 ] } },
{ "type": "Feature", "properties": { "Id": "0081", "Address": "ул. Большая Татарская, д.19/13", "TotalElectricPlaces": 0, "TotalOrdinaryPlaces": 18, "TotalPlaces": 18, "IsOverflow": false, "IsLocked": false }, "geometry": { "type": "Point", "coordinates": [ 37.6333164, 55.7398418 ] } },
{ "type": "Feature", "properties": { "Id": "0084", "Address": "ул. Большая Татарская, д.30", "TotalElectricPlaces": 12, "TotalOrdinaryPlaces": 0, "TotalPlaces": 12, "IsOverflow": false, "IsLocked": false }, "geometry": { "type": "Point", "coordinates": [ 37.63392, 55.73875 ] } },
{ "type": "Feature", "properties": { "Id": "0085", "Address": "Котельническая наб., д.1", "TotalElectricPlaces": 0, "TotalOrdinaryPlaces": 18, "TotalPlaces": 18, "IsOverflow": false, "IsLocked": false }, "geometry": { "type": "Point", "coordinates": [ 37.645458, 55.7483533 ] } },
{ "type": "Feature", "properties": { "Id": "0060", "Address": "ул. Мясницкая, д.11", "TotalElectricPlaces": 0, "TotalOrdinaryPlaces": 12, "TotalPlaces": 12, "IsOverflow": false, "IsLocked": false }, "geometry": { "type": "Point", "coordinates": [ 37.6331175, 55.7617374 ] } },
{ "type": "Feature", "properties": { "Id": "0390", "Address": "ул. Академика Волгина, д.6", "TotalElectricPlaces": 0, "TotalOrdinaryPlaces": 12, "TotalPlaces": 12, "IsOverflow": false, "IsLocked": false }, "geometry": { "type": "Point", "coordinates": [ 37.5192587, 55.6527248 ] } },
{ "type": "Feature", "properties": { "Id": "0335", "Address": "ул. Профсоюзная, д.82, к.1 (ст. м. Калужская)", "TotalElectricPlaces": 0, "TotalOrdinaryPlaces": 15, "TotalPlaces": 15, "IsOverflow": false, "IsLocked": false }, "geometry": { "type": "Point", "coordinates": [ 37.539523, 55.6565141 ] } },
{ "type": "Feature", "properties": { "Id": "0336", "Address": "ул. Профсоюзная, д.88/20", "TotalElectricPlaces": 0, "TotalOrdinaryPlaces": 15, "TotalPlaces": 15, "IsOverflow": false, "IsLocked": false }, "geometry": { "type": "Point", "coordinates": [ 37.5323146, 55.6505176 ] } },
{ "type": "Feature", "properties": { "Id": "0394", "Address": "Нахимовский пр-т, д.51/21 (ст. м. Профсоюзная, выход №7)", "TotalElectricPlaces": 0, "TotalOrdinaryPlaces": 18, "TotalPlaces": 18, "IsOverflow": false, "IsLocked": false }, "geometry": { "type": "Point", "coordinates": [ 37.5629419, 55.6771438 ] } },
{ "type": "Feature", "properties": { "Id": "0309", "Address": "ул. Болотниковская (парк им. 70-ти летия Победы)", "TotalElectricPlaces": 0, "TotalOrdinaryPlaces": 12, "TotalPlaces": 12, "IsOverflow": false, "IsLocked": false }, "geometry": { "type": "Point", "coordinates": [ 37.5710478, 55.6651369 ] } },
{ "type": "Feature", "properties": { "Id": "0407", "Address": "ул. Селезнёвская, д.28", "TotalElectricPlaces": 0, "TotalOrdinaryPlaces": 12, "TotalPlaces": 12, "IsOverflow": false, "IsLocked": false }, "geometry": { "type": "Point", "coordinates": [ 37.6079968, 55.7806984 ] } },
{ "type": "Feature", "properties": { "Id": "0245", "Address": "Площадь Киевского вокзала, д.2", "TotalElectricPlaces": 0, "TotalOrdinaryPlaces": 18, "TotalPlaces": 18, "IsOverflow": true, "IsLocked": false }, "geometry": { "type": "Point", "coordinates": [ 37.56871, 55.74496 ] } },
{ "type": "Feature", "properties": { "Id": "0410", "Address": "2-й Щемиловский пер., д.14", "TotalElectricPlaces": 0, "TotalOrdinaryPlaces": 12, "TotalPlaces": 12, "IsOverflow": false, "IsLocked": true }, "geometry": { "type": "Point", "coordinates": [ 37.6089126, 55.778327 ] } },
{ "type": "Feature", "properties": { "Id": "0248", "Address": "ул. Б. Дорогомиловская, д.7/2", "TotalElectricPlaces": 0, "TotalOrdinaryPlaces": 15, "TotalPlaces": 15, "IsOverflow": false, "IsLocked": false }, "geometry": { "type": "Point", "coordinates": [ 37.55784, 55.74622 ] } },
{ "type": "Feature", "properties": { "Id": "0416", "Address": "ул. Сущёвский Вал, д.16, стр.1", "TotalElectricPlaces": 0, "TotalOrdinaryPlaces": 12, "TotalPlaces": 12, "IsOverflow": false, "IsLocked": false }, "geometry": { "type": "Point", "coordinates": [ 37.6023012, 55.7924677 ] } },
{ "type": "Feature", "properties": { "Id": "0453", "Address": "ст. м. Владыкино", "TotalElectricPlaces": 0, "TotalOrdinaryPlaces": 36, "TotalPlaces": 36, "IsOverflow": true, "IsLocked": false }, "geometry": { "type": "Point", "coordinates": [ 37.5897749, 55.8459731 ] } },
{ "type": "Feature", "properties": { "Id": "0485", "Address": "Дмитровское ш., д.13А, к.3 (ст. м. Тимирязевская)", "TotalElectricPlaces": 0, "TotalOrdinaryPlaces": 18, "TotalPlaces": 18, "IsOverflow": false, "IsLocked": true }, "geometry": { "type": "Point", "coordinates": [ 37.5741987, 55.8191407 ] } },
{ "type": "Feature", "properties": { "Id": "0157", "Address": "ул. Крымский Вал, д.9, стр.1 (напротив входа в Парк Горького)", "TotalElectricPlaces": 0, "TotalOrdinaryPlaces": 44, "TotalPlaces": 44, "IsOverflow": true, "IsLocked": false }, "geometry": { "type": "Point", "coordinates": [ 37.6048252, 55.731981 ] } },
{ "type": "Feature", "properties": { "Id": "0005", "Address": "Никитский б-р (напротив д.11/12, стр.3)", "TotalElectricPlaces": 0, "TotalOrdinaryPlaces": 12, "TotalPlaces": 12, "IsOverflow": false, "IsLocked": false }, "geometry": { "type": "Point", "coordinates": [ 37.5999825, 55.7553104 ] } },
{ "type": "Feature", "properties": { "Id": "0017", "Address": "Чистопрудный б-р (напротив д.8, стр.1)", "TotalElectricPlaces": 0, "TotalOrdinaryPlaces": 8, "TotalPlaces": 8, "IsOverflow": false, "IsLocked": false }, "geometry": { "type": "Point", "coordinates": [ 37.641671, 55.763247 ] } },
{ "type": "Feature", "properties": { "Id": "0380", "Address": "ул. Миклухо-Маклая, д.6", "TotalElectricPlaces": 0, "TotalOrdinaryPlaces": 12, "TotalPlaces": 12, "IsOverflow": false, "IsLocked": false }, "geometry": { "type": "Point", "coordinates": [ 37.5006237, 55.6533607 ] } },
{ "type": "Feature", "properties": { "Id": "0323", "Address": "ст. м. Ленинский проспект (южный вестибюль)", "TotalElectricPlaces": 0, "TotalOrdinaryPlaces": 36, "TotalPlaces": 36, "IsOverflow": true, "IsLocked": false }, "geometry": { "type": "Point", "coordinates": [ 37.58531, 55.70674 ] } },
{ "type": "Feature", "properties": { "Id": "0049", "Address": "ул. Мясницкая, д.39, стр.1", "TotalElectricPlaces": 0, "TotalOrdinaryPlaces": 10, "TotalPlaces": 10, "IsOverflow": false, "IsLocked": false }, "geometry": { "type": "Point", "coordinates": [ 37.641517, 55.76728 ] } },
{ "type": "Feature", "properties": { "Id": "0603", "Address": "ул. Мастеркова, д.3 (ст. м. Автозаводская)", "TotalElectricPlaces": 0, "TotalOrdinaryPlaces": 15, "TotalPlaces": 15, "IsOverflow": false, "IsLocked": false }, "geometry": { "type": "Point", "coordinates": [ 37.657647, 55.7082873 ] } },
{ "type": "Feature", "properties": { "Id": "0422", "Address": "ул. Советской Армии, д.17/52", "TotalElectricPlaces": 0, "TotalOrdinaryPlaces": 12, "TotalPlaces": 12, "IsOverflow": false, "IsLocked": false }, "geometry": { "type": "Point", "coordinates": [ 37.6158903, 55.792512 ] } },
{ "type": "Feature", "properties": { "Id": "0404", "Address": "ул. Чаянова, д.15", "TotalElectricPlaces": 0, "TotalOrdinaryPlaces": 12, "TotalPlaces": 12, "IsOverflow": false, "IsLocked": false }, "geometry": { "type": "Point", "coordinates": [ 37.5959992, 55.776466 ] } },
{ "type": "Feature", "properties": { "Id": "0004", "Address": "ул. Малая Никитская, д.24, стр.2", "TotalElectricPlaces": 0, "TotalOrdinaryPlaces": 12, "TotalPlaces": 12, "IsOverflow": false, "IsLocked": false }, "geometry": { "type": "Point", "coordinates": [ 37.5874544, 55.7591806 ] } },
{ "type": "Feature", "properties": { "Id": "0412", "Address": "ул. Самотечная, д.9", "TotalElectricPlaces": 0, "TotalOrdinaryPlaces": 12, "TotalPlaces": 12, "IsOverflow": false, "IsLocked": false }, "geometry": { "type": "Point", "coordinates": [ 37.6182931, 55.776646 ] } },
{ "type": "Feature", "properties": { "Id": "0475", "Address": "Продольный пр., д.115А (ст. м. ВДНХ, северный вестибюль)", "TotalElectricPlaces": 0, "TotalOrdinaryPlaces": 24, "TotalPlaces": 24, "IsOverflow": false, "IsLocked": false }, "geometry": { "type": "Point", "coordinates": [ 37.6414493, 55.8224303 ] } },
{ "type": "Feature", "properties": { "Id": "0031", "Address": "ул. Большая Дмитровка, д.2", "TotalElectricPlaces": 0, "TotalOrdinaryPlaces": 12, "TotalPlaces": 12, "IsOverflow": true, "IsLocked": false }, "geometry": { "type": "Point", "coordinates": [ 37.616547, 55.759165 ] } },
{ "type": "Feature", "properties": { "Id": "0022", "Address": "Кремлёвская наб., д.1", "TotalElectricPlaces": 0, "TotalOrdinaryPlaces": 27, "TotalPlaces": 27, "IsOverflow": false, "IsLocked": false }, "geometry": { "type": "Point", "coordinates": [ 37.6101276, 55.7464818 ] } },
{ "type": "Feature", "properties": { "Id": "0136", "Address": "ул. Земляной Вал, д.2", "TotalElectricPlaces": 0, "TotalOrdinaryPlaces": 12, "TotalPlaces": 12, "IsOverflow": false, "IsLocked": false }, "geometry": { "type": "Point", "coordinates": [ 37.656429, 55.763292 ] } },
{ "type": "Feature", "properties": { "Id": "0459", "Address": "ул. Каланчёвская, д.15А", "TotalElectricPlaces": 0, "TotalOrdinaryPlaces": 12, "TotalPlaces": 12, "IsOverflow": false, "IsLocked": false }, "geometry": { "type": "Point", "coordinates": [ 37.6520953, 55.7724956 ] } },
{ "type": "Feature", "properties": { "Id": "0002", "Address": "Гоголевский б-р (напротив д.17, стр.1)", "TotalElectricPlaces": 0, "TotalOrdinaryPlaces": 14, "TotalPlaces": 14, "IsOverflow": false, "IsLocked": false }, "geometry": { "type": "Point", "coordinates": [ 37.5997037, 55.7468663 ] } },
{ "type": "Feature", "properties": { "Id": "0305", "Address": "ул. Кржижановского, вл.22, стр.2", "TotalElectricPlaces": 0, "TotalOrdinaryPlaces": 12, "TotalPlaces": 12, "IsOverflow": false, "IsLocked": false }, "geometry": { "type": "Point", "coordinates": [ 37.5745946, 55.678373 ] } },
{ "type": "Feature", "properties": { "Id": "0039", "Address": "ул. Покровка, д.7/9-11", "TotalElectricPlaces": 0, "TotalOrdinaryPlaces": 22, "TotalPlaces": 22, "IsOverflow": false, "IsLocked": false }, "geometry": { "type": "Point", "coordinates": [ 37.642574, 55.759038 ] } },
{ "type": "Feature", "properties": { "Id": "0058", "Address": "Серебряническая наб., д.29", "TotalElectricPlaces": 0, "TotalOrdinaryPlaces": 12, "TotalPlaces": 12, "IsOverflow": false, "IsLocked": false }, "geometry": { "type": "Point", "coordinates": [ 37.654944, 55.750628 ] } },
{ "type": "Feature", "properties": { "Id": "0072", "Address": "Космодамианская наб., д.46/50", "TotalElectricPlaces": 0, "TotalOrdinaryPlaces": 21, "TotalPlaces": 21, "IsOverflow": false, "IsLocked": false }, "geometry": { "type": "Point", "coordinates": [ 37.645943, 55.7364956 ] } },
{ "type": "Feature", "properties": { "Id": "0349", "Address": "Университетская пл. (напротив ГЗ МГУ)", "TotalElectricPlaces": 0, "TotalOrdinaryPlaces": 24, "TotalPlaces": 24, "IsOverflow": false, "IsLocked": false }, "geometry": { "type": "Point", "coordinates": [ 37.535522, 55.706203 ] } },
{ "type": "Feature", "properties": { "Id": "0382", "Address": "ул. Профсоюзная, д.91 (ст. м. Беляево, южный вестибюль)", "TotalElectricPlaces": 0, "TotalOrdinaryPlaces": 18, "TotalPlaces": 18, "IsOverflow": false, "IsLocked": false }, "geometry": { "type": "Point", "coordinates": [ 37.526472, 55.642252 ] } },
{ "type": "Feature", "properties": { "Id": "0379", "Address": "ул. Введенского, д.13А", "TotalElectricPlaces": 0, "TotalOrdinaryPlaces": 12, "TotalPlaces": 12, "IsOverflow": false, "IsLocked": false }, "geometry": { "type": "Point", "coordinates": [ 37.541377, 55.642636 ] } },
{ "type": "Feature", "properties": { "Id": "0343", "Address": "ул. Косыгина, д.18, стр.1", "TotalElectricPlaces": 0, "TotalOrdinaryPlaces": 24, "TotalPlaces": 24, "IsOverflow": false, "IsLocked": false }, "geometry": { "type": "Point", "coordinates": [ 37.554776, 55.706491 ] } },
{ "type": "Feature", "properties": { "Id": "0318", "Address": "Ленинский пр-т, д.45", "TotalElectricPlaces": 0, "TotalOrdinaryPlaces": 12, "TotalPlaces": 12, "IsOverflow": false, "IsLocked": false }, "geometry": { "type": "Point", "coordinates": [ 37.5731731, 55.7032184 ] } },
{ "type": "Feature", "properties": { "Id": "0321", "Address": "Ленинский пр-т, д.79", "TotalElectricPlaces": 0, "TotalOrdinaryPlaces": 12, "TotalPlaces": 12, "IsOverflow": false, "IsLocked": false }, "geometry": { "type": "Point", "coordinates": [ 37.540695, 55.6841473 ] } },
{ "type": "Feature", "properties": { "Id": "0330", "Address": "ул. Профсоюзная, д.7/12", "TotalElectricPlaces": 0, "TotalOrdinaryPlaces": 12, "TotalPlaces": 12, "IsOverflow": false, "IsLocked": false }, "geometry": { "type": "Point", "coordinates": [ 37.5701523, 55.6843417 ] } },
{ "type": "Feature", "properties": { "Id": "0331", "Address": "ул. Профсоюзная, д.46, к.1", "TotalElectricPlaces": 0, "TotalOrdinaryPlaces": 12, "TotalPlaces": 12, "IsOverflow": false, "IsLocked": false }, "geometry": { "type": "Point", "coordinates": [ 37.557668, 55.6736328 ] } },
{ "type": "Feature", "properties": { "Id": "0332", "Address": "ул. Профсоюзная, д.58/32, к.2 (ст. м. Новые Черёмушки, выход №3)", "TotalElectricPlaces": 0, "TotalOrdinaryPlaces": 24, "TotalPlaces": 24, "IsOverflow": false, "IsLocked": false }, "geometry": { "type": "Point", "coordinates": [ 37.5529925, 55.6689814 ] } },
{ "type": "Feature", "properties": { "Id": "0333", "Address": "ул. Профсоюзная, д.61А (ст. м. Калужская)", "TotalElectricPlaces": 0, "TotalOrdinaryPlaces": 18, "TotalPlaces": 18, "IsOverflow": false, "IsLocked": false }, "geometry": { "type": "Point", "coordinates": [ 37.5397093, 55.6560575 ] } },
{ "type": "Feature", "properties": { "Id": "0443", "Address": "пр-т Мира, д.97", "TotalElectricPlaces": 0, "TotalOrdinaryPlaces": 12, "TotalPlaces": 12, "IsOverflow": false, "IsLocked": false }, "geometry": { "type": "Point", "coordinates": [ 37.63662, 55.80838 ] } },
{ "type": "Feature", "properties": { "Id": "0471", "Address": "ул. Академика Королёва, д.12Б", "TotalElectricPlaces": 0, "TotalOrdinaryPlaces": 12, "TotalPlaces": 12, "IsOverflow": false, "IsLocked": false }, "geometry": { "type": "Point", "coordinates": [ 37.6095579, 55.8218255 ] } },
{ "type": "Feature", "properties": { "Id": "0472", "Address": "Звёздный б-р, д.18/1", "TotalElectricPlaces": 0, "TotalOrdinaryPlaces": 12, "TotalPlaces": 12, "IsOverflow": false, "IsLocked": false }, "geometry": { "type": "Point", "coordinates": [ 37.6299313, 55.8154706 ] } },
{ "type": "Feature", "properties": { "Id": "0417", "Address": "ул. Шереметьевская, д.2 (ст. м. Марьина Роща, выход №5)", "TotalElectricPlaces": 0, "TotalOrdinaryPlaces": 12, "TotalPlaces": 12, "IsOverflow": false, "IsLocked": false }, "geometry": { "type": "Point", "coordinates": [ 37.6168972, 55.7935234 ] } },
{ "type": "Feature", "properties": { "Id": "0146", "Address": "ул. Верхняя Радищевская, д.22 (ст. м. Таганская)", "TotalElectricPlaces": 0, "TotalOrdinaryPlaces": 12, "TotalPlaces": 12, "IsOverflow": false, "IsLocked": false }, "geometry": { "type": "Point", "coordinates": [ 37.65385, 55.74229 ] } },
{ "type": "Feature", "properties": { "Id": "0393", "Address": "Нахимовский пр-т, д.45, стр.1", "TotalElectricPlaces": 0, "TotalOrdinaryPlaces": 12, "TotalPlaces": 12, "IsOverflow": false, "IsLocked": false }, "geometry": { "type": "Point", "coordinates": [ 37.5708842, 55.6748694 ] } },
{ "type": "Feature", "properties": { "Id": "0236", "Address": "ул. Малая Грузинская, д.19/2", "TotalElectricPlaces": 0, "TotalOrdinaryPlaces": 18, "TotalPlaces": 18, "IsOverflow": false, "IsLocked": false }, "geometry": { "type": "Point", "coordinates": [ 37.5719413, 55.7654099 ] } },
{ "type": "Feature", "properties": { "Id": "0339", "Address": "ул. Обручева, д.16, к.1", "TotalElectricPlaces": 0, "TotalOrdinaryPlaces": 12, "TotalPlaces": 12, "IsOverflow": false, "IsLocked": false }, "geometry": { "type": "Point", "coordinates": [ 37.5145855, 55.6589469 ] } },
{ "type": "Feature", "properties": { "Id": "0397", "Address": "ул. Дмитрия Ульянова, д.24 (ст. м. Академическая)", "TotalElectricPlaces": 0, "TotalOrdinaryPlaces": 18, "TotalPlaces": 18, "IsOverflow": false, "IsLocked": false }, "geometry": { "type": "Point", "coordinates": [ 37.57295, 55.68685 ] } },
{ "type": "Feature", "properties": { "Id": "0489", "Address": "ст. м. Сокольники", "TotalElectricPlaces": 0, "TotalOrdinaryPlaces": 18, "TotalPlaces": 18, "IsOverflow": false, "IsLocked": false }, "geometry": { "type": "Point", "coordinates": [ 37.679857, 55.789152 ] } },
{ "type": "Feature", "properties": { "Id": "0484", "Address": "ул. Руставели (напротив д.6, к.5)", "TotalElectricPlaces": 0, "TotalOrdinaryPlaces": 12, "TotalPlaces": 12, "IsOverflow": false, "IsLocked": false }, "geometry": { "type": "Point", "coordinates": [ 37.5880136, 55.8126995 ] } },
{ "type": "Feature", "properties": { "Id": "0528", "Address": "ул. Черняховского, д.4А", "TotalElectricPlaces": 0, "TotalOrdinaryPlaces": 12, "TotalPlaces": 12, "IsOverflow": false, "IsLocked": false }, "geometry": { "type": "Point", "coordinates": [ 37.53454, 55.80364 ] } },
{ "type": "Feature", "properties": { "Id": "0329", "Address": "ул. Гарибальди, д.6, к.1", "TotalElectricPlaces": 0, "TotalOrdinaryPlaces": 12, "TotalPlaces": 12, "IsOverflow": false, "IsLocked": false }, "geometry": { "type": "Point", "coordinates": [ 37.5372313, 55.6760559 ] } },
{ "type": "Feature", "properties": { "Id": "0399", "Address": "Симферопольский б-р, д.15, к.5", "TotalElectricPlaces": 0, "TotalOrdinaryPlaces": 12, "TotalPlaces": 12, "IsOverflow": false, "IsLocked": false }, "geometry": { "type": "Point", "coordinates": [ 37.6057778, 55.653513 ] } },
{ "type": "Feature", "properties": { "Id": "0308", "Address": "ул. Вавилова, д.17", "TotalElectricPlaces": 0, "TotalOrdinaryPlaces": 12, "TotalPlaces": 12, "IsOverflow": false, "IsLocked": false }, "geometry": { "type": "Point", "coordinates": [ 37.579688, 55.7015839 ] } },
{ "type": "Feature", "properties": { "Id": "0342", "Address": "ул. Мосфильмовская, д.1, стр.4", "TotalElectricPlaces": 0, "TotalOrdinaryPlaces": 21, "TotalPlaces": 21, "IsOverflow": false, "IsLocked": false }, "geometry": { "type": "Point", "coordinates": [ 37.5300029, 55.7233339 ] } },
{ "type": "Feature", "properties": { "Id": "0782", "Address": "Сокольническая пл., д.7", "TotalElectricPlaces": 0, "TotalOrdinaryPlaces": 24, "TotalPlaces": 24, "IsOverflow": false, "IsLocked": false }, "geometry": { "type": "Point", "coordinates": [ 37.67814, 55.7921 ] } },
{ "type": "Feature", "properties": { "Id": "0478", "Address": "ул. Сокольнический Вал, д.8", "TotalElectricPlaces": 0, "TotalOrdinaryPlaces": 24, "TotalPlaces": 24, "IsOverflow": false, "IsLocked": false }, "geometry": { "type": "Point", "coordinates": [ 37.6599869, 55.7925135 ] } },
{ "type": "Feature", "properties": { "Id": "0491", "Address": "ул. Стромынка, д.13 (пересеч. с ул. Короленко)", "TotalElectricPlaces": 0, "TotalOrdinaryPlaces": 15, "TotalPlaces": 15, "IsOverflow": false, "IsLocked": false }, "geometry": { "type": "Point", "coordinates": [ 37.6944615, 55.7940252 ] } },
{ "type": "Feature", "properties": { "Id": "0492", "Address": "ул. Стромынка, д.20 (Технологический университет)", "TotalElectricPlaces": 0, "TotalOrdinaryPlaces": 15, "TotalPlaces": 15, "IsOverflow": false, "IsLocked": false }, "geometry": { "type": "Point", "coordinates": [ 37.6994467, 55.7943402 ] } },
{ "type": "Feature", "properties": { "Id": "0434", "Address": "пр-т Мира, д.102, к.2", "TotalElectricPlaces": 0, "TotalOrdinaryPlaces": 18, "TotalPlaces": 18, "IsOverflow": false, "IsLocked": false }, "geometry": { "type": "Point", "coordinates": [ 37.6363469, 55.8016402 ] } },
{ "type": "Feature", "properties": { "Id": "0455", "Address": "ул. Краснопрудная, д.13А (ст. м. Красносельская)", "TotalElectricPlaces": 0, "TotalOrdinaryPlaces": 24, "TotalPlaces": 24, "IsOverflow": false, "IsLocked": false }, "geometry": { "type": "Point", "coordinates": [ 37.6661093, 55.7798124 ] } },
{ "type": "Feature", "properties": { "Id": "0435", "Address": "пр-т Мира, д.114Б, стр.2 (ст. м. Алексеевская)", "TotalElectricPlaces": 0, "TotalOrdinaryPlaces": 24, "TotalPlaces": 24, "IsOverflow": false, "IsLocked": false }, "geometry": { "type": "Point", "coordinates": [ 37.6376553, 55.807908 ] } },
{ "type": "Feature", "properties": { "Id": "0457", "Address": "ул. Бауманская, д.33/2 (ст. м. Бауманская)", "TotalElectricPlaces": 0, "TotalOrdinaryPlaces": 21, "TotalPlaces": 21, "IsOverflow": false, "IsLocked": false }, "geometry": { "type": "Point", "coordinates": [ 37.6788565, 55.772242 ] } },
{ "type": "Feature", "properties": { "Id": "0433", "Address": "пр-т Мира, д.92, стр.2 (ст. м. Рижская)", "TotalElectricPlaces": 0, "TotalOrdinaryPlaces": 30, "TotalPlaces": 30, "IsOverflow": false, "IsLocked": false }, "geometry": { "type": "Point", "coordinates": [ 37.635781, 55.7922984 ] } },
{ "type": "Feature", "properties": { "Id": "0262", "Address": "ул. Люсиновская, д.48/50, к.10 (пересеч. с ул. Павла Андреева)", "TotalElectricPlaces": 0, "TotalOrdinaryPlaces": 12, "TotalPlaces": 12, "IsOverflow": false, "IsLocked": false }, "geometry": { "type": "Point", "coordinates": [ 37.6220242, 55.7209237 ] } },
{ "type": "Feature", "properties": { "Id": "0082", "Address": "Болотная пл. (напротив к/т Ударник)", "TotalElectricPlaces": 0, "TotalOrdinaryPlaces": 27, "TotalPlaces": 27, "IsOverflow": false, "IsLocked": false }, "geometry": { "type": "Point", "coordinates": [ 37.615425, 55.744008 ] } },
{ "type": "Feature", "properties": { "Id": "0261", "Address": "4-й Добрынинский пер., д.2/10", "TotalElectricPlaces": 0, "TotalOrdinaryPlaces": 12, "TotalPlaces": 12, "IsOverflow": false, "IsLocked": false }, "geometry": { "type": "Point", "coordinates": [ 37.6197354, 55.7273527 ] } },
{ "type": "Feature", "properties": { "Id": "0477", "Address": "3-я Рыбинская ул., д.30", "TotalElectricPlaces": 0, "TotalOrdinaryPlaces": 9, "TotalPlaces": 9, "IsOverflow": false, "IsLocked": false }, "geometry": { "type": "Point", "coordinates": [ 37.663779, 55.7888271 ] } },
{ "type": "Feature", "properties": { "Id": "0527", "Address": "ул. Планетная, д.49", "TotalElectricPlaces": 0, "TotalOrdinaryPlaces": 15, "TotalPlaces": 15, "IsOverflow": false, "IsLocked": false }, "geometry": { "type": "Point", "coordinates": [ 37.5382933, 55.8063388 ] } },
{ "type": "Feature", "properties": { "Id": "0500", "Address": "Хорошёвское ш., д.82 (ст. м. Полежаевская)", "TotalElectricPlaces": 0, "TotalOrdinaryPlaces": 21, "TotalPlaces": 21, "IsOverflow": false, "IsLocked": false }, "geometry": { "type": "Point", "coordinates": [ 37.5212052, 55.7779297 ] } },
{ "type": "Feature", "properties": { "Id": "0438", "Address": "ул. Маломосковская, д.22, стр.1", "TotalElectricPlaces": 0, "TotalOrdinaryPlaces": 15, "TotalPlaces": 15, "IsOverflow": false, "IsLocked": false }, "geometry": { "type": "Point", "coordinates": [ 37.6531, 55.81177 ] } },
{ "type": "Feature", "properties": { "Id": "0019", "Address": "Покровский б-р (напротив д.8, стр.1)", "TotalElectricPlaces": 0, "TotalOrdinaryPlaces": 8, "TotalPlaces": 8, "IsOverflow": false, "IsLocked": false }, "geometry": { "type": "Point", "coordinates": [ 37.647211, 55.757313 ] } },
{ "type": "Feature", "properties": { "Id": "0030", "Address": "Камергерский пер., д.4", "TotalElectricPlaces": 0, "TotalOrdinaryPlaces": 14, "TotalPlaces": 14, "IsOverflow": false, "IsLocked": true }, "geometry": { "type": "Point", "coordinates": [ 37.612442, 55.759361 ] } },
{ "type": "Feature", "properties": { "Id": "0386", "Address": "ул. Островитянова, д.29/120 (ст. м. Коньково, выход №8)", "TotalElectricPlaces": 0, "TotalOrdinaryPlaces": 12, "TotalPlaces": 12, "IsOverflow": false, "IsLocked": false }, "geometry": { "type": "Point", "coordinates": [ 37.520142, 55.6345077 ] } },
{ "type": "Feature", "properties": { "Id": "0406", "Address": "ул. Новослободская, д.11, стр.1", "TotalElectricPlaces": 0, "TotalOrdinaryPlaces": 12, "TotalPlaces": 12, "IsOverflow": false, "IsLocked": false }, "geometry": { "type": "Point", "coordinates": [ 37.6002618, 55.7798721 ] } },
{ "type": "Feature", "properties": { "Id": "0240", "Address": "Смоленская наб., д.2", "TotalElectricPlaces": 0, "TotalOrdinaryPlaces": 33, "TotalPlaces": 33, "IsOverflow": false, "IsLocked": false }, "geometry": { "type": "Point", "coordinates": [ 37.5757323, 55.7460166 ] } },
{ "type": "Feature", "properties": { "Id": "0226", "Address": "Краснопресненская наб., д.10, стр.5", "TotalElectricPlaces": 0, "TotalOrdinaryPlaces": 27, "TotalPlaces": 27, "IsOverflow": false, "IsLocked": false }, "geometry": { "type": "Point", "coordinates": [ 37.5605165, 55.7540692 ] } },
{ "type": "Feature", "properties": { "Id": "0138", "Address": "ул. Земляной Вал, д.14/16, стр.1", "TotalElectricPlaces": 0, "TotalOrdinaryPlaces": 18, "TotalPlaces": 18, "IsOverflow": false, "IsLocked": false }, "geometry": { "type": "Point", "coordinates": [ 37.6571565, 55.7610338 ] } },
{ "type": "Feature", "properties": { "Id": "0243", "Address": "Бережковская наб., д.20, стр.19", "TotalElectricPlaces": 24, "TotalOrdinaryPlaces": 12, "TotalPlaces": 36, "IsOverflow": true, "IsLocked": false }, "geometry": { "type": "Point", "coordinates": [ 37.5517684, 55.7331476 ] } },
{ "type": "Feature", "properties": { "Id": "0224", "Address": "Краснопресненская наб., д.14, стр.1", "TotalElectricPlaces": 0, "TotalOrdinaryPlaces": 27, "TotalPlaces": 27, "IsOverflow": false, "IsLocked": false }, "geometry": { "type": "Point", "coordinates": [ 37.5465367, 55.748965 ] } },
{ "type": "Feature", "properties": { "Id": "0102", "Address": "Зубовская пл., д.3, стр.1", "TotalElectricPlaces": 21, "TotalOrdinaryPlaces": 24, "TotalPlaces": 45, "IsOverflow": false, "IsLocked": false }, "geometry": { "type": "Point", "coordinates": [ 37.5861519, 55.7383154 ] } },
{ "type": "Feature", "properties": { "Id": "0027", "Address": "ул. Большая Никитская (напротив д.13)", "TotalElectricPlaces": 0, "TotalOrdinaryPlaces": 12, "TotalPlaces": 12, "IsOverflow": false, "IsLocked": false }, "geometry": { "type": "Point", "coordinates": [ 37.6046504, 55.7566653 ] } },
{ "type": "Feature", "properties": { "Id": "0059", "Address": "ул. Большая Якиманка, д.16 (ст. м. Октябрьская (радиальная))", "TotalElectricPlaces": 0, "TotalOrdinaryPlaces": 30, "TotalPlaces": 30, "IsOverflow": false, "IsLocked": false }, "geometry": { "type": "Point", "coordinates": [ 37.612528, 55.730772 ] } },
{ "type": "Feature", "properties": { "Id": "0128", "Address": "ул. Садовая-Спасская (напротив д.26)", "TotalElectricPlaces": 0, "TotalOrdinaryPlaces": 18, "TotalPlaces": 18, "IsOverflow": false, "IsLocked": false }, "geometry": { "type": "Point", "coordinates": [ 37.6429131, 55.7703931 ] } },
{ "type": "Feature", "properties": { "Id": "0230", "Address": "ул. Малая Грузинская, д.41", "TotalElectricPlaces": 0, "TotalOrdinaryPlaces": 12, "TotalPlaces": 12, "IsOverflow": false, "IsLocked": false }, "geometry": { "type": "Point", "coordinates": [ 37.5730793, 55.7724736 ] } },
{ "type": "Feature", "properties": { "Id": "0458", "Address": "ул. Старая Басманная, д.21/4, стр.1", "TotalElectricPlaces": 0, "TotalOrdinaryPlaces": 12, "TotalPlaces": 12, "IsOverflow": false, "IsLocked": true }, "geometry": { "type": "Point", "coordinates": [ 37.6641747, 55.7671544 ] } },
{ "type": "Feature", "properties": { "Id": "0750", "Address": "Краснопресненская наб., д.16, стр.1", "TotalElectricPlaces": 0, "TotalOrdinaryPlaces": 12, "TotalPlaces": 12, "IsOverflow": false, "IsLocked": false }, "geometry": { "type": "Point", "coordinates": [ 37.543724, 55.747807 ] } },
{ "type": "Feature", "properties": { "Id": "0033", "Address": "Столешников пер. (напротив д.11)", "TotalElectricPlaces": 0, "TotalOrdinaryPlaces": 10, "TotalPlaces": 10, "IsOverflow": false, "IsLocked": false }, "geometry": { "type": "Point", "coordinates": [ 37.61731, 55.763407 ] } },
{ "type": "Feature", "properties": { "Id": "0223", "Address": "ул. Мантулинская, д.5, стр.6", "TotalElectricPlaces": 0, "TotalOrdinaryPlaces": 15, "TotalPlaces": 15, "IsOverflow": false, "IsLocked": false }, "geometry": { "type": "Point", "coordinates": [ 37.5513244, 55.7559551 ] } },
{ "type": "Feature", "properties": { "Id": "0222", "Address": "ул. Мантулинская, д.2", "TotalElectricPlaces": 0, "TotalOrdinaryPlaces": 12, "TotalPlaces": 12, "IsOverflow": false, "IsLocked": false }, "geometry": { "type": "Point", "coordinates": [ 37.558939, 55.75685 ] } },
{ "type": "Feature", "properties": { "Id": "0388", "Address": "Варшавское ш., д.100", "TotalElectricPlaces": 0, "TotalOrdinaryPlaces": 12, "TotalPlaces": 12, "IsOverflow": false, "IsLocked": false }, "geometry": { "type": "Point", "coordinates": [ 37.6192664, 55.6452564 ] } },
{ "type": "Feature", "properties": { "Id": "0233", "Address": "ул. Гашека, д.2, стр.1", "TotalElectricPlaces": 0, "TotalOrdinaryPlaces": 12, "TotalPlaces": 12, "IsOverflow": false, "IsLocked": false }, "geometry": { "type": "Point", "coordinates": [ 37.587921, 55.767711 ] } },
{ "type": "Feature", "properties": { "Id": "0395", "Address": "ул. Дмитрия Ульянова, д.32А", "TotalElectricPlaces": 0, "TotalOrdinaryPlaces": 12, "TotalPlaces": 12, "IsOverflow": false, "IsLocked": false }, "geometry": { "type": "Point", "coordinates": [ 37.5828562, 55.6845728 ] } },
{ "type": "Feature", "properties": { "Id": "0325", "Address": "ул. Болотниковская, д.34", "TotalElectricPlaces": 0, "TotalOrdinaryPlaces": 12, "TotalPlaces": 12, "IsOverflow": false, "IsLocked": false }, "geometry": { "type": "Point", "coordinates": [ 37.5942492, 55.659118 ] } },
{ "type": "Feature", "properties": { "Id": "0319", "Address": "Ленинский пр-т, д.69", "TotalElectricPlaces": 0, "TotalOrdinaryPlaces": 15, "TotalPlaces": 15, "IsOverflow": false, "IsLocked": false }, "geometry": { "type": "Point", "coordinates": [ 37.550726, 55.69062 ] } },
{ "type": "Feature", "properties": { "Id": "0272", "Address": "ул. Большая Тульская, д.13", "TotalElectricPlaces": 0, "TotalOrdinaryPlaces": 12, "TotalPlaces": 12, "IsOverflow": false, "IsLocked": false }, "geometry": { "type": "Point", "coordinates": [ 37.622305, 55.710801 ] } },
{ "type": "Feature", "properties": { "Id": "0150", "Address": "ул. Валовая, д.20", "TotalElectricPlaces": 30, "TotalOrdinaryPlaces": 0, "TotalPlaces": 30, "IsOverflow": false, "IsLocked": false }, "geometry": { "type": "Point", "coordinates": [ 37.63087, 55.730666 ] } },
{ "type": "Feature", "properties": { "Id": "0144", "Address": "ул. Земляной Вал, д.52/16, стр.2", "TotalElectricPlaces": 0, "TotalOrdinaryPlaces": 12, "TotalPlaces": 12, "IsOverflow": false, "IsLocked": false }, "geometry": { "type": "Point", "coordinates": [ 37.65552, 55.749 ] } },
{ "type": "Feature", "properties": { "Id": "0244", "Address": "ул. Плющиха, д.39", "TotalElectricPlaces": 0, "TotalOrdinaryPlaces": 12, "TotalPlaces": 12, "IsOverflow": false, "IsLocked": false }, "geometry": { "type": "Point", "coordinates": [ 37.576753, 55.740264 ] } },
{ "type": "Feature", "properties": { "Id": "0358", "Address": "Ломоносовский пр-т (дублёр), пересечение с ул. Лебедева", "TotalElectricPlaces": 0, "TotalOrdinaryPlaces": 12, "TotalPlaces": 12, "IsOverflow": false, "IsLocked": false }, "geometry": { "type": "Point", "coordinates": [ 37.528489, 55.698436 ] } },
{ "type": "Feature", "properties": { "Id": "0356", "Address": "Ломоносовский пр-т (дублёр), пересечение с ул. Менделеева", "TotalElectricPlaces": 0, "TotalOrdinaryPlaces": 12, "TotalPlaces": 12, "IsOverflow": false, "IsLocked": false }, "geometry": { "type": "Point", "coordinates": [ 37.522672, 55.701742 ] } },
{ "type": "Feature", "properties": { "Id": "0353", "Address": "ул. Криворожская, д.33Г", "TotalElectricPlaces": 0, "TotalOrdinaryPlaces": 12, "TotalPlaces": 12, "IsOverflow": false, "IsLocked": false }, "geometry": { "type": "Point", "coordinates": [ 37.6090521, 55.6716545 ] } },
{ "type": "Feature", "properties": { "Id": "0252", "Address": "ул. Льва Толстого, д.14А", "TotalElectricPlaces": 0, "TotalOrdinaryPlaces": 6, "TotalPlaces": 6, "IsOverflow": false, "IsLocked": false }, "geometry": { "type": "Point", "coordinates": [ 37.58823, 55.73311 ] } },
{ "type": "Feature", "properties": { "Id": "0378", "Address": "мкрн. Чертаново Северное, д.4, к.401", "TotalElectricPlaces": 0, "TotalOrdinaryPlaces": 12, "TotalPlaces": 12, "IsOverflow": false, "IsLocked": false }, "geometry": { "type": "Point", "coordinates": [ 37.594296, 55.636752 ] } },
{ "type": "Feature", "properties": { "Id": "0383", "Address": "ул. Миклухо-Маклая, д.44 (вход в Битцевский парк)", "TotalElectricPlaces": 0, "TotalOrdinaryPlaces": 18, "TotalPlaces": 18, "IsOverflow": false, "IsLocked": false }, "geometry": { "type": "Point", "coordinates": [ 37.543148, 55.637955 ] } },
{ "type": "Feature", "properties": { "Id": "0377", "Address": "ст. м. Чертановская (выход №5)", "TotalElectricPlaces": 0, "TotalOrdinaryPlaces": 18, "TotalPlaces": 18, "IsOverflow": false, "IsLocked": false }, "geometry": { "type": "Point", "coordinates": [ 37.6049, 55.64052 ] } },
{ "type": "Feature", "properties": { "Id": "0234", "Address": "ул. Большая Грузинская, д.39", "TotalElectricPlaces": 0, "TotalOrdinaryPlaces": 12, "TotalPlaces": 12, "IsOverflow": false, "IsLocked": false }, "geometry": { "type": "Point", "coordinates": [ 37.58203, 55.77001 ] } },
{ "type": "Feature", "properties": { "Id": "0040", "Address": "ул. Солянка (напротив д.8)", "TotalElectricPlaces": 0, "TotalOrdinaryPlaces": 12, "TotalPlaces": 12, "IsOverflow": false, "IsLocked": false }, "geometry": { "type": "Point", "coordinates": [ 37.638913, 55.753189 ] } },
{ "type": "Feature", "properties": { "Id": "0355", "Address": "Ломоносовский пр-т, д.29, к.3 (ст. м. Ломоносовский пр-т, выход №2)", "TotalElectricPlaces": 0, "TotalOrdinaryPlaces": 12, "TotalPlaces": 12, "IsOverflow": false, "IsLocked": false }, "geometry": { "type": "Point", "coordinates": [ 37.514291, 55.705293 ] } },
{ "type": "Feature", "properties": { "Id": "0352", "Address": "ул. Академика Хохлова (у входа в ГЗ МГУ)", "TotalElectricPlaces": 0, "TotalOrdinaryPlaces": 36, "TotalPlaces": 36, "IsOverflow": false, "IsLocked": false }, "geometry": { "type": "Point", "coordinates": [ 37.530847, 55.701597 ] } },
{ "type": "Feature", "properties": { "Id": "0228", "Address": "Шмитовский пр., д.16, стр.2", "TotalElectricPlaces": 0, "TotalOrdinaryPlaces": 12, "TotalPlaces": 12, "IsOverflow": false, "IsLocked": false }, "geometry": { "type": "Point", "coordinates": [ 37.5457088, 55.7575043 ] } },
{ "type": "Feature", "properties": { "Id": "0532", "Address": "ул. Верхняя Масловка, д.10, стр.4", "TotalElectricPlaces": 0, "TotalOrdinaryPlaces": 15, "TotalPlaces": 15, "IsOverflow": false, "IsLocked": false }, "geometry": { "type": "Point", "coordinates": [ 37.56551, 55.79306 ] } },
{ "type": "Feature", "properties": { "Id": "0231", "Address": "пл. Тверская Застава, д.7", "TotalElectricPlaces": 0, "TotalOrdinaryPlaces": 33, "TotalPlaces": 33, "IsOverflow": false, "IsLocked": false }, "geometry": { "type": "Point", "coordinates": [ 37.5830376, 55.7770608 ] } },
{ "type": "Feature", "properties": { "Id": "0334", "Address": "ул. Профсоюзная, д.104 (ст. м. Беляево, южный вестибюль)", "TotalElectricPlaces": 0, "TotalOrdinaryPlaces": 18, "TotalPlaces": 18, "IsOverflow": false, "IsLocked": false }, "geometry": { "type": "Point", "coordinates": [ 37.5256107, 55.6420084 ] } },
{ "type": "Feature", "properties": { "Id": "0600", "Address": "ул. Шарикоподшипниковская, д.24 (ст. м. Дубровка, выход №3)", "TotalElectricPlaces": 0, "TotalOrdinaryPlaces": 15, "TotalPlaces": 15, "IsOverflow": false, "IsLocked": false }, "geometry": { "type": "Point", "coordinates": [ 37.6763299, 55.717707 ] } },
{ "type": "Feature", "properties": { "Id": "0408", "Address": "ул. Лесная, д.63/43, стр.2", "TotalElectricPlaces": 0, "TotalOrdinaryPlaces": 18, "TotalPlaces": 18, "IsOverflow": false, "IsLocked": false }, "geometry": { "type": "Point", "coordinates": [ 37.5963795, 55.7838658 ] } },
{ "type": "Feature", "properties": { "Id": "0271", "Address": "ул. Мытная, д.74", "TotalElectricPlaces": 0, "TotalOrdinaryPlaces": 40, "TotalPlaces": 40, "IsOverflow": false, "IsLocked": false }, "geometry": { "type": "Point", "coordinates": [ 37.621316, 55.7120063 ] } },
{ "type": "Feature", "properties": { "Id": "0450", "Address": "ул. Сергея Эйзенштейна, д.8", "TotalElectricPlaces": 0, "TotalOrdinaryPlaces": 21, "TotalPlaces": 21, "IsOverflow": false, "IsLocked": false }, "geometry": { "type": "Point", "coordinates": [ 37.6374584, 55.8334316 ] } },
{ "type": "Feature", "properties": { "Id": "0276", "Address": "ул. Мосфильмовская, д.55", "TotalElectricPlaces": 0, "TotalOrdinaryPlaces": 15, "TotalPlaces": 15, "IsOverflow": false, "IsLocked": false }, "geometry": { "type": "Point", "coordinates": [ 37.49521, 55.70393 ] } },
{ "type": "Feature", "properties": { "Id": "0463", "Address": "ул. Каланчёвская, д.10, стр.3", "TotalElectricPlaces": 0, "TotalOrdinaryPlaces": 12, "TotalPlaces": 12, "IsOverflow": false, "IsLocked": false }, "geometry": { "type": "Point", "coordinates": [ 37.6501702, 55.7763965 ] } },
{ "type": "Feature", "properties": { "Id": "0473", "Address": "ул. Академика Королёва, д.12А", "TotalElectricPlaces": 0, "TotalOrdinaryPlaces": 12, "TotalPlaces": 12, "IsOverflow": false, "IsLocked": false }, "geometry": { "type": "Point", "coordinates": [ 37.6042362, 55.8218703 ] } },
{ "type": "Feature", "properties": { "Id": "0474", "Address": "1-я Останкинская ул., д.55", "TotalElectricPlaces": 0, "TotalOrdinaryPlaces": 24, "TotalPlaces": 24, "IsOverflow": false, "IsLocked": false }, "geometry": { "type": "Point", "coordinates": [ 37.6341961, 55.823283 ] } },
{ "type": "Feature", "properties": { "Id": "0602", "Address": "ул. Симоновский Вал, д.2", "TotalElectricPlaces": 0, "TotalOrdinaryPlaces": 12, "TotalPlaces": 12, "IsOverflow": false, "IsLocked": false }, "geometry": { "type": "Point", "coordinates": [ 37.6606868, 55.7301414 ] } },
{ "type": "Feature", "properties": { "Id": "0149", "Address": "Павелецкая пл., д.2, стр.2", "TotalElectricPlaces": 0, "TotalOrdinaryPlaces": 12, "TotalPlaces": 12, "IsOverflow": false, "IsLocked": true }, "geometry": { "type": "Point", "coordinates": [ 37.63573, 55.73079 ] } },
{ "type": "Feature", "properties": { "Id": "0260", "Address": "ул. Б. Серпуховская, д. 22/21, стр.3 (ст. м. Серпуховская)", "TotalElectricPlaces": 0, "TotalOrdinaryPlaces": 12, "TotalPlaces": 12, "IsOverflow": false, "IsLocked": false }, "geometry": { "type": "Point", "coordinates": [ 37.6250142, 55.7266781 ] } },
{ "type": "Feature", "properties": { "Id": "0050", "Address": "ул. Новый Арбат, д.1", "TotalElectricPlaces": 0, "TotalOrdinaryPlaces": 18, "TotalPlaces": 18, "IsOverflow": false, "IsLocked": false }, "geometry": { "type": "Point", "coordinates": [ 37.599867, 55.752609 ] } },
{ "type": "Feature", "properties": { "Id": "0034", "Address": "пл. Сретенские ворота (напротив д.1)", "TotalElectricPlaces": 0, "TotalOrdinaryPlaces": 21, "TotalPlaces": 21, "IsOverflow": false, "IsLocked": false }, "geometry": { "type": "Point", "coordinates": [ 37.631618, 55.766613 ] } },
{ "type": "Feature", "properties": { "Id": "0037", "Address": "Чистопрудный б-р (ст. м. Чистые пруды)", "TotalElectricPlaces": 0, "TotalOrdinaryPlaces": 24, "TotalPlaces": 24, "IsOverflow": false, "IsLocked": false }, "geometry": { "type": "Point", "coordinates": [ 37.639141, 55.764719 ] } },
{ "type": "Feature", "properties": { "Id": "0053", "Address": "ул. Новый Арбат, д.21", "TotalElectricPlaces": 0, "TotalOrdinaryPlaces": 18, "TotalPlaces": 18, "IsOverflow": false, "IsLocked": false }, "geometry": { "type": "Point", "coordinates": [ 37.584725, 55.752153 ] } },
{ "type": "Feature", "properties": { "Id": "0265", "Address": "ул. Мытная, д.15", "TotalElectricPlaces": 0, "TotalOrdinaryPlaces": 18, "TotalPlaces": 18, "IsOverflow": false, "IsLocked": true }, "geometry": { "type": "Point", "coordinates": [ 37.6178259, 55.7204756 ] } },
{ "type": "Feature", "properties": { "Id": "0490", "Address": "ул. Стромынка, д.7, к.4", "TotalElectricPlaces": 0, "TotalOrdinaryPlaces": 21, "TotalPlaces": 21, "IsOverflow": false, "IsLocked": false }, "geometry": { "type": "Point", "coordinates": [ 37.6871517, 55.7919252 ] } },
{ "type": "Feature", "properties": { "Id": "0268", "Address": "ул. Павловская, д.7", "TotalElectricPlaces": 0, "TotalOrdinaryPlaces": 12, "TotalPlaces": 12, "IsOverflow": false, "IsLocked": false }, "geometry": { "type": "Point", "coordinates": [ 37.62786, 55.72113 ] } },
{ "type": "Feature", "properties": { "Id": "0538", "Address": "ул. Милашенкова, д.1 (ст. м. Фонвизинская)", "TotalElectricPlaces": 0, "TotalOrdinaryPlaces": 24, "TotalPlaces": 24, "IsOverflow": false, "IsLocked": false }, "geometry": { "type": "Point", "coordinates": [ 37.589078, 55.8218449 ] } },
{ "type": "Feature", "properties": { "Id": "0083", "Address": "ул. Большая Якиманка (напротив д.18)", "TotalElectricPlaces": 0, "TotalOrdinaryPlaces": 18, "TotalPlaces": 18, "IsOverflow": false, "IsLocked": false }, "geometry": { "type": "Point", "coordinates": [ 37.6167027, 55.7396445 ] } },
{ "type": "Feature", "properties": { "Id": "0020", "Address": "Покровский б-р (напротив д.12, стр.1)", "TotalElectricPlaces": 0, "TotalOrdinaryPlaces": 8, "TotalPlaces": 8, "IsOverflow": false, "IsLocked": false }, "geometry": { "type": "Point", "coordinates": [ 37.648355, 55.755462 ] } },
{ "type": "Feature", "properties": { "Id": "0015", "Address": "Тургеневская пл. (ст. м. Тургеневская)", "TotalElectricPlaces": 0, "TotalOrdinaryPlaces": 21, "TotalPlaces": 21, "IsOverflow": false, "IsLocked": false }, "geometry": { "type": "Point", "coordinates": [ 37.636329, 55.765334 ] } },
{ "type": "Feature", "properties": { "Id": "0267", "Address": "ул. Дубининская, д.25, стр.1", "TotalElectricPlaces": 0, "TotalOrdinaryPlaces": 12, "TotalPlaces": 12, "IsOverflow": false, "IsLocked": false }, "geometry": { "type": "Point", "coordinates": [ 37.637515, 55.726421 ] } },
{ "type": "Feature", "properties": { "Id": "0057", "Address": "Раушская наб., д.14", "TotalElectricPlaces": 0, "TotalOrdinaryPlaces": 21, "TotalPlaces": 21, "IsOverflow": false, "IsLocked": false }, "geometry": { "type": "Point", "coordinates": [ 37.6328433, 55.748202 ] } },
{ "type": "Feature", "properties": { "Id": "0006", "Address": "Никитский б-р (напротив д.23/14/9)", "TotalElectricPlaces": 0, "TotalOrdinaryPlaces": 15, "TotalPlaces": 15, "IsOverflow": false, "IsLocked": false }, "geometry": { "type": "Point", "coordinates": [ 37.598667, 55.757163 ] } },
{ "type": "Feature", "properties": { "Id": "0011", "Address": "Страстной б-р (напротив д.16)", "TotalElectricPlaces": 0, "TotalOrdinaryPlaces": 8, "TotalPlaces": 8, "IsOverflow": false, "IsLocked": false }, "geometry": { "type": "Point", "coordinates": [ 37.613347, 55.768066 ] } },
{ "type": "Feature", "properties": { "Id": "0056", "Address": "Берсеневская наб., д.20/2", "TotalElectricPlaces": 0, "TotalOrdinaryPlaces": 36, "TotalPlaces": 36, "IsOverflow": false, "IsLocked": false }, "geometry": { "type": "Point", "coordinates": [ 37.61144, 55.74559 ] } },
{ "type": "Feature", "properties": { "Id": "0032", "Address": "ул. Большая Дмитровка, д.5/6, стр.5", "TotalElectricPlaces": 0, "TotalOrdinaryPlaces": 12, "TotalPlaces": 12, "IsOverflow": false, "IsLocked": false }, "geometry": { "type": "Point", "coordinates": [ 37.615807, 55.759865 ] } },
{ "type": "Feature", "properties": { "Id": "0075", "Address": "Климентовский пер., д.23, стр.1 (ст. м. Третьяковская)", "TotalElectricPlaces": 0, "TotalOrdinaryPlaces": 16, "TotalPlaces": 16, "IsOverflow": false, "IsLocked": false }, "geometry": { "type": "Point", "coordinates": [ 37.625638, 55.740815 ] } },
{ "type": "Feature", "properties": { "Id": "0104", "Address": "Смоленский б-р, д.22/14", "TotalElectricPlaces": 0, "TotalOrdinaryPlaces": 39, "TotalPlaces": 39, "IsOverflow": false, "IsLocked": false }, "geometry": { "type": "Point", "coordinates": [ 37.5852946, 55.7414275 ] } },
{ "type": "Feature", "properties": { "Id": "0217", "Address": "ул. Усачева, д.2, стр.1", "TotalElectricPlaces": 0, "TotalOrdinaryPlaces": 25, "TotalPlaces": 25, "IsOverflow": false, "IsLocked": false }, "geometry": { "type": "Point", "coordinates": [ 37.576903, 55.730695 ] } },
{ "type": "Feature", "properties": { "Id": "0074", "Address": "ул. Большая Полянка, д.50/1, стр.1", "TotalElectricPlaces": 0, "TotalOrdinaryPlaces": 12, "TotalPlaces": 12, "IsOverflow": false, "IsLocked": false }, "geometry": { "type": "Point", "coordinates": [ 37.620018, 55.73218 ] } },
{ "type": "Feature", "properties": { "Id": "0263", "Address": "ул. Люсиновская, д.12", "TotalElectricPlaces": 0, "TotalOrdinaryPlaces": 12, "TotalPlaces": 12, "IsOverflow": false, "IsLocked": false }, "geometry": { "type": "Point", "coordinates": [ 37.6223722, 55.7241978 ] } },
{ "type": "Feature", "properties": { "Id": "0403", "Address": "ул. Фадеева, д.4", "TotalElectricPlaces": 0, "TotalOrdinaryPlaces": 12, "TotalPlaces": 12, "IsOverflow": false, "IsLocked": false }, "geometry": { "type": "Point", "coordinates": [ 37.599413, 55.774431 ] } },
{ "type": "Feature", "properties": { "Id": "0221", "Address": "ул. Красная Пресня, д.21", "TotalElectricPlaces": 0, "TotalOrdinaryPlaces": 12, "TotalPlaces": 12, "IsOverflow": false, "IsLocked": true }, "geometry": { "type": "Point", "coordinates": [ 37.5706888, 55.7615452 ] } },
{ "type": "Feature", "properties": { "Id": "0070", "Address": "Лаврушинский пер. (напротив д.4, стр.1)", "TotalElectricPlaces": 0, "TotalOrdinaryPlaces": 12, "TotalPlaces": 12, "IsOverflow": false, "IsLocked": false }, "geometry": { "type": "Point", "coordinates": [ 37.6202, 55.743048 ] } },
{ "type": "Feature", "properties": { "Id": "0212", "Address": "Хамовнический Вал, д.40, стр.1", "TotalElectricPlaces": 0, "TotalOrdinaryPlaces": 34, "TotalPlaces": 34, "IsOverflow": true, "IsLocked": false }, "geometry": { "type": "Point", "coordinates": [ 37.550435, 55.727595 ] } },
{ "type": "Feature", "properties": { "Id": "0035", "Address": "ул. Кузнецкий мост, д.13/9, стр.1", "TotalElectricPlaces": 0, "TotalOrdinaryPlaces": 18, "TotalPlaces": 18, "IsOverflow": false, "IsLocked": false }, "geometry": { "type": "Point", "coordinates": [ 37.623177, 55.762217 ] } },
{ "type": "Feature", "properties": { "Id": "0424", "Address": "Ленинградский пр-т, д.14, к.1", "TotalElectricPlaces": 0, "TotalOrdinaryPlaces": 21, "TotalPlaces": 21, "IsOverflow": false, "IsLocked": false }, "geometry": { "type": "Point", "coordinates": [ 37.57797, 55.78045 ] } },
{ "type": "Feature", "properties": { "Id": "0751", "Address": "ул. 1905 года, д.4, стр.2 (ст. м. Улица 1905 года, выход к ул. Пресненский Вал)", "TotalElectricPlaces": 0, "TotalOrdinaryPlaces": 24, "TotalPlaces": 24, "IsOverflow": false, "IsLocked": false }, "geometry": { "type": "Point", "coordinates": [ 37.56245, 55.7637 ] } },
{ "type": "Feature", "properties": { "Id": "0310", "Address": "Ленинский пр-т, д.34/1", "TotalElectricPlaces": 12, "TotalOrdinaryPlaces": 0, "TotalPlaces": 12, "IsOverflow": false, "IsLocked": false }, "geometry": { "type": "Point", "coordinates": [ 37.578173, 55.707107 ] } },
{ "type": "Feature", "properties": { "Id": "0311", "Address": "Ленинский пр-т, д.54", "TotalElectricPlaces": 12, "TotalOrdinaryPlaces": 0, "TotalPlaces": 12, "IsOverflow": false, "IsLocked": false }, "geometry": { "type": "Point", "coordinates": [ 37.560729, 55.697476 ] } },
{ "type": "Feature", "properties": { "Id": "0232", "Address": "2-я Брестская ул., д.31", "TotalElectricPlaces": 0, "TotalOrdinaryPlaces": 12, "TotalPlaces": 12, "IsOverflow": false, "IsLocked": false }, "geometry": { "type": "Point", "coordinates": [ 37.586215, 55.7733 ] } },
{ "type": "Feature", "properties": { "Id": "0054", "Address": "пер. Сивцев Вражек, д.26, стр.1", "TotalElectricPlaces": 0, "TotalOrdinaryPlaces": 12, "TotalPlaces": 12, "IsOverflow": false, "IsLocked": true }, "geometry": { "type": "Point", "coordinates": [ 37.592209, 55.747411 ] } },
{ "type": "Feature", "properties": { "Id": "0401", "Address": "2-я Тверская-Ямская ул., д.54", "TotalElectricPlaces": 0, "TotalOrdinaryPlaces": 12, "TotalPlaces": 12, "IsOverflow": false, "IsLocked": false }, "geometry": { "type": "Point", "coordinates": [ 37.58955, 55.77538 ] } },
{ "type": "Feature", "properties": { "Id": "0360", "Address": "пл. Джавахарлала Неру, д.1 (ст. м. Университет, выход №2)", "TotalElectricPlaces": 0, "TotalOrdinaryPlaces": 33, "TotalPlaces": 33, "IsOverflow": false, "IsLocked": false }, "geometry": { "type": "Point", "coordinates": [ 37.535463, 55.693257 ] } },
{ "type": "Feature", "properties": { "Id": "0320", "Address": "Ленинский пр-т, д.73/8", "TotalElectricPlaces": 0, "TotalOrdinaryPlaces": 15, "TotalPlaces": 15, "IsOverflow": false, "IsLocked": false }, "geometry": { "type": "Point", "coordinates": [ 37.546468, 55.688153 ] } },
{ "type": "Feature", "properties": { "Id": "0359", "Address": "Ломоносовский пр-т (дублёр, напротив д.1, стр.64)", "TotalElectricPlaces": 0, "TotalOrdinaryPlaces": 18, "TotalPlaces": 18, "IsOverflow": false, "IsLocked": false }, "geometry": { "type": "Point", "coordinates": [ 37.533756, 55.695176 ] } },
{ "type": "Feature", "properties": { "Id": "0241", "Address": "ст. м. Краснопресненская", "TotalElectricPlaces": 18, "TotalOrdinaryPlaces": 12, "TotalPlaces": 30, "IsOverflow": false, "IsLocked": false }, "geometry": { "type": "Point", "coordinates": [ 37.5776708, 55.7604391 ] } },
{ "type": "Feature", "properties": { "Id": "0315", "Address": "Ленинский пр-т, д.9, стр.3", "TotalElectricPlaces": 0, "TotalOrdinaryPlaces": 12, "TotalPlaces": 12, "IsOverflow": false, "IsLocked": true }, "geometry": { "type": "Point", "coordinates": [ 37.605352, 55.724388 ] } },
{ "type": "Feature", "properties": { "Id": "0024", "Address": "Москворецкая наб., д.2А", "TotalElectricPlaces": 0, "TotalOrdinaryPlaces": 21, "TotalPlaces": 21, "IsOverflow": false, "IsLocked": true }, "geometry": { "type": "Point", "coordinates": [ 37.6386809, 55.7478923 ] } },
{ "type": "Feature", "properties": { "Id": "0402", "Address": "ул. Лесная, д.6", "TotalElectricPlaces": 0, "TotalOrdinaryPlaces": 12, "TotalPlaces": 12, "IsOverflow": false, "IsLocked": false }, "geometry": { "type": "Point", "coordinates": [ 37.5870704, 55.7772628 ] } },
{ "type": "Feature", "properties": { "Id": "0312", "Address": "Ленинский пр-т, д.60/2", "TotalElectricPlaces": 0, "TotalOrdinaryPlaces": 12, "TotalPlaces": 12, "IsOverflow": false, "IsLocked": false }, "geometry": { "type": "Point", "coordinates": [ 37.556333, 55.694853 ] } },
{ "type": "Feature", "properties": { "Id": "0428", "Address": "ул. Нижняя Масловка, д.5, к.1", "TotalElectricPlaces": 0, "TotalOrdinaryPlaces": 15, "TotalPlaces": 15, "IsOverflow": false, "IsLocked": false }, "geometry": { "type": "Point", "coordinates": [ 37.5841, 55.79185 ] } },
{ "type": "Feature", "properties": { "Id": "0012", "Address": "Цветной б-р (напротив д.1, ст. м. Трубная)", "TotalElectricPlaces": 0, "TotalOrdinaryPlaces": 12, "TotalPlaces": 12, "IsOverflow": true, "IsLocked": false }, "geometry": { "type": "Point", "coordinates": [ 37.621486, 55.768003 ] } },
{ "type": "Feature", "properties": { "Id": "0122", "Address": "Цветной б-р., д.34, стр.1", "TotalElectricPlaces": 0, "TotalOrdinaryPlaces": 30, "TotalPlaces": 30, "IsOverflow": true, "IsLocked": false }, "geometry": { "type": "Point", "coordinates": [ 37.6212721, 55.7730885 ] } },
{ "type": "Feature", "properties": { "Id": "0148", "Address": "ул. Новокузнецкая, д.43/16, стр.1 (ст. м. Павелецкая (кольцевая))", "TotalElectricPlaces": 0, "TotalOrdinaryPlaces": 12, "TotalPlaces": 12, "IsOverflow": false, "IsLocked": false }, "geometry": { "type": "Point", "coordinates": [ 37.6358074, 55.7310887 ] } },
{ "type": "Feature", "properties": { "Id": "0521", "Address": "Ленинградский пр-т, д.44", "TotalElectricPlaces": 0, "TotalOrdinaryPlaces": 12, "TotalPlaces": 12, "IsOverflow": false, "IsLocked": false }, "geometry": { "type": "Point", "coordinates": [ 37.5455944, 55.7950047 ] } },
{ "type": "Feature", "properties": { "Id": "0047", "Address": "ул. Каретный Ряд, д.3, стр.11", "TotalElectricPlaces": 0, "TotalOrdinaryPlaces": 12, "TotalPlaces": 12, "IsOverflow": false, "IsLocked": false }, "geometry": { "type": "Point", "coordinates": [ 37.6116459, 55.7700911 ] } },
{ "type": "Feature", "properties": { "Id": "0055", "Address": "ул. Пречистенка, д.34", "TotalElectricPlaces": 0, "TotalOrdinaryPlaces": 12, "TotalPlaces": 12, "IsOverflow": false, "IsLocked": false }, "geometry": { "type": "Point", "coordinates": [ 37.5896349, 55.7400913 ] } },
{ "type": "Feature", "properties": { "Id": "0071", "Address": "Космодамианская наб., д.22, стр.1", "TotalElectricPlaces": 0, "TotalOrdinaryPlaces": 21, "TotalPlaces": 21, "IsOverflow": false, "IsLocked": false }, "geometry": { "type": "Point", "coordinates": [ 37.6417277, 55.7434283 ] } },
{ "type": "Feature", "properties": { "Id": "0076", "Address": "ул. Пятницкая, д.25, стр.1Д (рядом со ст. м. Новокузнецкая)", "TotalElectricPlaces": 0, "TotalOrdinaryPlaces": 16, "TotalPlaces": 16, "IsOverflow": false, "IsLocked": false }, "geometry": { "type": "Point", "coordinates": [ 37.6286203, 55.7420854 ] } },
{ "type": "Feature", "properties": { "Id": "0078", "Address": "ул. Пятницкая, д.48, стр.1", "TotalElectricPlaces": 0, "TotalOrdinaryPlaces": 12, "TotalPlaces": 12, "IsOverflow": false, "IsLocked": false }, "geometry": { "type": "Point", "coordinates": [ 37.6276564, 55.7353228 ] } },
{ "type": "Feature", "properties": { "Id": "0304", "Address": "Калужская пл., д.1, к.3", "TotalElectricPlaces": 0, "TotalOrdinaryPlaces": 12, "TotalPlaces": 12, "IsOverflow": false, "IsLocked": false }, "geometry": { "type": "Point", "coordinates": [ 37.6121883, 55.7277408 ] } },
{ "type": "Feature", "properties": { "Id": "0522", "Address": "Ленинградский пр-т, д.54/1", "TotalElectricPlaces": 0, "TotalOrdinaryPlaces": 15, "TotalPlaces": 15, "IsOverflow": false, "IsLocked": false }, "geometry": { "type": "Point", "coordinates": [ 37.53978, 55.79759 ] } },
{ "type": "Feature", "properties": { "Id": "0510", "Address": "Чапаевский пер., д.2", "TotalElectricPlaces": 0, "TotalOrdinaryPlaces": 12, "TotalPlaces": 12, "IsOverflow": false, "IsLocked": false }, "geometry": { "type": "Point", "coordinates": [ 37.52036, 55.80273 ] } },
{ "type": "Feature", "properties": { "Id": "0512", "Address": "Ленинградский пр-т, д.39, стр.17", "TotalElectricPlaces": 0, "TotalOrdinaryPlaces": 9, "TotalPlaces": 9, "IsOverflow": false, "IsLocked": false }, "geometry": { "type": "Point", "coordinates": [ 37.54216, 55.79538 ] } },
{ "type": "Feature", "properties": { "Id": "0237", "Address": "ул. Пресненский Вал, д.24", "TotalElectricPlaces": 0, "TotalOrdinaryPlaces": 12, "TotalPlaces": 12, "IsOverflow": false, "IsLocked": false }, "geometry": { "type": "Point", "coordinates": [ 37.5655623, 55.7692458 ] } },
{ "type": "Feature", "properties": { "Id": "0300", "Address": "Мичуринский пр-т, д.12, к.1", "TotalElectricPlaces": 0, "TotalOrdinaryPlaces": 12, "TotalPlaces": 12, "IsOverflow": false, "IsLocked": false }, "geometry": { "type": "Point", "coordinates": [ 37.5073382, 55.7032223 ] } },
{ "type": "Feature", "properties": { "Id": "0302", "Address": "пр-т Вернадского, д.11/19", "TotalElectricPlaces": 0, "TotalOrdinaryPlaces": 18, "TotalPlaces": 18, "IsOverflow": false, "IsLocked": false }, "geometry": { "type": "Point", "coordinates": [ 37.530764, 55.6897298 ] } },
{ "type": "Feature", "properties": { "Id": "0303", "Address": "пр-т Вернадского, д.14", "TotalElectricPlaces": 0, "TotalOrdinaryPlaces": 18, "TotalPlaces": 18, "IsOverflow": false, "IsLocked": false }, "geometry": { "type": "Point", "coordinates": [ 37.504052, 55.675752 ] } },
{ "type": "Feature", "properties": { "Id": "0314", "Address": "Ленинский пр-т, д.86", "TotalElectricPlaces": 0, "TotalOrdinaryPlaces": 12, "TotalPlaces": 12, "IsOverflow": false, "IsLocked": false }, "geometry": { "type": "Point", "coordinates": [ 37.529704, 55.6780815 ] } },
{ "type": "Feature", "properties": { "Id": "0316", "Address": "Ленинский пр-т, д.15А", "TotalElectricPlaces": 0, "TotalOrdinaryPlaces": 24, "TotalPlaces": 24, "IsOverflow": false, "IsLocked": false }, "geometry": { "type": "Point", "coordinates": [ 37.6002317, 55.7210015 ] } },
{ "type": "Feature", "properties": { "Id": "0340", "Address": "ул. Шаболовка, д.32 (ст. м. Шаболовская)", "TotalElectricPlaces": 0, "TotalOrdinaryPlaces": 24, "TotalPlaces": 24, "IsOverflow": false, "IsLocked": false }, "geometry": { "type": "Point", "coordinates": [ 37.6080592, 55.718604 ] } },
{ "type": "Feature", "properties": { "Id": "0341", "Address": "ул. Орджоникидзе, д.11, стр.1/2", "TotalElectricPlaces": 0, "TotalOrdinaryPlaces": 21, "TotalPlaces": 21, "IsOverflow": false, "IsLocked": false }, "geometry": { "type": "Point", "coordinates": [ 37.5943736, 55.7098155 ] } },
{ "type": "Feature", "properties": { "Id": "0513", "Address": "Ленинградский пр-т, д.33, к.1", "TotalElectricPlaces": 0, "TotalOrdinaryPlaces": 15, "TotalPlaces": 15, "IsOverflow": false, "IsLocked": false }, "geometry": { "type": "Point", "coordinates": [ 37.56091, 55.78654 ] } },
{ "type": "Feature", "properties": { "Id": "0346", "Address": "Ленинский пр-т, д.27", "TotalElectricPlaces": 0, "TotalOrdinaryPlaces": 12, "TotalPlaces": 12, "IsOverflow": false, "IsLocked": false }, "geometry": { "type": "Point", "coordinates": [ 37.5931, 55.71599 ] } },
{ "type": "Feature", "properties": { "Id": "0347", "Address": "ул. Шверника, д.13, к.1", "TotalElectricPlaces": 0, "TotalOrdinaryPlaces": 12, "TotalPlaces": 12, "IsOverflow": false, "IsLocked": false }, "geometry": { "type": "Point", "coordinates": [ 37.5890604, 55.6914923 ] } },
{ "type": "Feature", "properties": { "Id": "0348", "Address": "ул. Мосфильмовская, д.17/25", "TotalElectricPlaces": 0, "TotalOrdinaryPlaces": 12, "TotalPlaces": 12, "IsOverflow": false, "IsLocked": false }, "geometry": { "type": "Point", "coordinates": [ 37.5159465, 55.7155927 ] } },
{ "type": "Feature", "properties": { "Id": "0531", "Address": "Дворцовая аллея (Пл. Космонавта Комарова)", "TotalElectricPlaces": 0, "TotalOrdinaryPlaces": 15, "TotalPlaces": 15, "IsOverflow": false, "IsLocked": false }, "geometry": { "type": "Point", "coordinates": [ 37.55366, 55.79435 ] } },
{ "type": "Feature", "properties": { "Id": "0354", "Address": "Ломоносовский пр-т, д.43/40", "TotalElectricPlaces": 0, "TotalOrdinaryPlaces": 15, "TotalPlaces": 15, "IsOverflow": false, "IsLocked": false }, "geometry": { "type": "Point", "coordinates": [ 37.5072476, 55.7105268 ] } },
{ "type": "Feature", "properties": { "Id": "0361", "Address": "Ломоносовский пр-т, д.2/62, стр.8", "TotalElectricPlaces": 0, "TotalOrdinaryPlaces": 12, "TotalPlaces": 12, "IsOverflow": false, "IsLocked": false }, "geometry": { "type": "Point", "coordinates": [ 37.5521608, 55.6846569 ] } },
{ "type": "Feature", "properties": { "Id": "0529", "Address": "ул. Планетная, д.17", "TotalElectricPlaces": 0, "TotalOrdinaryPlaces": 15, "TotalPlaces": 15, "IsOverflow": false, "IsLocked": false }, "geometry": { "type": "Point", "coordinates": [ 37.54917, 55.80034 ] } },
{ "type": "Feature", "properties": { "Id": "0628", "Address": "ул. Велозаводская, д.2", "TotalElectricPlaces": 0, "TotalOrdinaryPlaces": 10, "TotalPlaces": 10, "IsOverflow": false, "IsLocked": false }, "geometry": { "type": "Point", "coordinates": [ 37.6637295, 55.7170746 ] } },
{ "type": "Feature", "properties": { "Id": "0130", "Address": "Хоромный туп, д.2/6 (ст. м. Красные Ворота)", "TotalElectricPlaces": 0, "TotalOrdinaryPlaces": 24, "TotalPlaces": 24, "IsOverflow": false, "IsLocked": false }, "geometry": { "type": "Point", "coordinates": [ 37.649046, 55.768248 ] } },
{ "type": "Feature", "properties": { "Id": "0288", "Address": "ул. Профсоюзная, д.55", "TotalElectricPlaces": 0, "TotalOrdinaryPlaces": 12, "TotalPlaces": 12, "IsOverflow": false, "IsLocked": false }, "geometry": { "type": "Point", "coordinates": [ 37.5492, 55.66466 ] } },
{ "type": "Feature", "properties": { "Id": "0253", "Address": "Комсомольский пр-т, д.5/2", "TotalElectricPlaces": 0, "TotalOrdinaryPlaces": 12, "TotalPlaces": 12, "IsOverflow": false, "IsLocked": false }, "geometry": { "type": "Point", "coordinates": [ 37.59244, 55.73208 ] } },
{ "type": "Feature", "properties": { "Id": "0255", "Address": "ул. Костикова (2-я Звенигородская ул., д.13, стр.42)", "TotalElectricPlaces": 0, "TotalOrdinaryPlaces": 24, "TotalPlaces": 24, "IsOverflow": false, "IsLocked": false }, "geometry": { "type": "Point", "coordinates": [ 37.55135, 55.7612 ] } },
{ "type": "Feature", "properties": { "Id": "0042", "Address": "Георгиевский пер., д.2", "TotalElectricPlaces": 0, "TotalOrdinaryPlaces": 12, "TotalPlaces": 12, "IsOverflow": false, "IsLocked": false }, "geometry": { "type": "Point", "coordinates": [ 37.6142074, 55.7584711 ] } },
{ "type": "Feature", "properties": { "Id": "0515", "Address": "МЦК Хорошёво", "TotalElectricPlaces": 0, "TotalOrdinaryPlaces": 21, "TotalPlaces": 21, "IsOverflow": false, "IsLocked": false }, "geometry": { "type": "Point", "coordinates": [ 37.506187, 55.776742 ] } },
{ "type": "Feature", "properties": { "Id": "0259", "Address": "Саввинская наб., д.9", "TotalElectricPlaces": 12, "TotalOrdinaryPlaces": 21, "TotalPlaces": 33, "IsOverflow": false, "IsLocked": false }, "geometry": { "type": "Point", "coordinates": [ 37.5683739, 55.7371931 ] } },
{ "type": "Feature", "properties": { "Id": "0652", "Address": "2-я Бауманская ул., д.3", "TotalElectricPlaces": 0, "TotalOrdinaryPlaces": 12, "TotalPlaces": 12, "IsOverflow": false, "IsLocked": false }, "geometry": { "type": "Point", "coordinates": [ 37.684929, 55.768817 ] } },
{ "type": "Feature", "properties": { "Id": "0086", "Address": "1-я Тверская-Ямская ул., д.11", "TotalElectricPlaces": 0, "TotalOrdinaryPlaces": 15, "TotalPlaces": 15, "IsOverflow": false, "IsLocked": true }, "geometry": { "type": "Point", "coordinates": [ 37.5916535, 55.7724933 ] } },
{ "type": "Feature", "properties": { "Id": "0606", "Address": "1-я Дубровская ул., д.7/10", "TotalElectricPlaces": 0, "TotalOrdinaryPlaces": 15, "TotalPlaces": 15, "IsOverflow": false, "IsLocked": false }, "geometry": { "type": "Point", "coordinates": [ 37.670731, 55.725931 ] } },
{ "type": "Feature", "properties": { "Id": "0296", "Address": "Мичуринский пр-т, д.38 (ст. м. Раменки)", "TotalElectricPlaces": 0, "TotalOrdinaryPlaces": 10, "TotalPlaces": 10, "IsOverflow": false, "IsLocked": false }, "geometry": { "type": "Point", "coordinates": [ 37.4960883, 55.6967984 ] } },
{ "type": "Feature", "properties": { "Id": "0499", "Address": "4-й Лучевой просек, платформа Маленковская", "TotalElectricPlaces": 0, "TotalOrdinaryPlaces": 15, "TotalPlaces": 15, "IsOverflow": false, "IsLocked": false }, "geometry": { "type": "Point", "coordinates": [ 37.66318, 55.81387 ] } },
{ "type": "Feature", "properties": { "Id": "0284", "Address": "пр-т Вернадского, д.70А", "TotalElectricPlaces": 0, "TotalOrdinaryPlaces": 12, "TotalPlaces": 12, "IsOverflow": false, "IsLocked": false }, "geometry": { "type": "Point", "coordinates": [ 37.49611, 55.67144 ] } },
{ "type": "Feature", "properties": { "Id": "0504", "Address": "Ходынский б-р, д.3", "TotalElectricPlaces": 0, "TotalOrdinaryPlaces": 15, "TotalPlaces": 15, "IsOverflow": false, "IsLocked": false }, "geometry": { "type": "Point", "coordinates": [ 37.53766, 55.78664 ] } },
{ "type": "Feature", "properties": { "Id": "0505", "Address": "ул. Гризодубовой, д.2", "TotalElectricPlaces": 0, "TotalOrdinaryPlaces": 15, "TotalPlaces": 15, "IsOverflow": false, "IsLocked": false }, "geometry": { "type": "Point", "coordinates": [ 37.53099, 55.7822 ] } },
{ "type": "Feature", "properties": { "Id": "0502", "Address": "3-я Песчаная ул., д.2А, стр.2", "TotalElectricPlaces": 15, "TotalOrdinaryPlaces": 15, "TotalPlaces": 30, "IsOverflow": false, "IsLocked": false }, "geometry": { "type": "Point", "coordinates": [ 37.513551, 55.792384 ] } },
{ "type": "Feature", "properties": { "Id": "0448", "Address": "Рижский пр., д.6, к.1", "TotalElectricPlaces": 0, "TotalOrdinaryPlaces": 15, "TotalPlaces": 15, "IsOverflow": false, "IsLocked": false }, "geometry": { "type": "Point", "coordinates": [ 37.661985, 55.81389 ] } },
{ "type": "Feature", "properties": { "Id": "0476", "Address": "пр-т Мира, д.142, стр.2 (ст. м. ВДНХ, выход к ул. Кибальчича)", "TotalElectricPlaces": 0, "TotalOrdinaryPlaces": 21, "TotalPlaces": 21, "IsOverflow": false, "IsLocked": false }, "geometry": { "type": "Point", "coordinates": [ 37.64044, 55.81938 ] } },
{ "type": "Feature", "properties": { "Id": "0456", "Address": "ул. Нижняя Красносельская, д.40/12, к.11", "TotalElectricPlaces": 0, "TotalOrdinaryPlaces": 15, "TotalPlaces": 15, "IsOverflow": false, "IsLocked": false }, "geometry": { "type": "Point", "coordinates": [ 37.6726, 55.77471 ] } },
{ "type": "Feature", "properties": { "Id": "0426", "Address": "5-я ул. Ямского поля, д.24", "TotalElectricPlaces": 0, "TotalOrdinaryPlaces": 15, "TotalPlaces": 15, "IsOverflow": false, "IsLocked": false }, "geometry": { "type": "Point", "coordinates": [ 37.57815, 55.78834 ] } },
{ "type": "Feature", "properties": { "Id": "0115", "Address": "Триумфальная пл., д.2 (вход в сад Аквариум)", "TotalElectricPlaces": 0, "TotalOrdinaryPlaces": 20, "TotalPlaces": 20, "IsOverflow": false, "IsLocked": false }, "geometry": { "type": "Point", "coordinates": [ 37.594487, 55.768127 ] } },
{ "type": "Feature", "properties": { "Id": "0116", "Address": "ул. Садовая-Триумфальная, д.4/10", "TotalElectricPlaces": 0, "TotalOrdinaryPlaces": 12, "TotalPlaces": 12, "IsOverflow": false, "IsLocked": false }, "geometry": { "type": "Point", "coordinates": [ 37.5997612, 55.7708538 ] } },
{ "type": "Feature", "properties": { "Id": "0392", "Address": "ул. Улофа Пальме, д.1", "TotalElectricPlaces": 0, "TotalOrdinaryPlaces": 12, "TotalPlaces": 12, "IsOverflow": false, "IsLocked": false }, "geometry": { "type": "Point", "coordinates": [ 37.513659, 55.717902 ] } },
{ "type": "Feature", "properties": { "Id": "0264", "Address": "ул. Люсиновская, д.2 (ст. м. Добрынинская)", "TotalElectricPlaces": 0, "TotalOrdinaryPlaces": 12, "TotalPlaces": 12, "IsOverflow": false, "IsLocked": false }, "geometry": { "type": "Point", "coordinates": [ 37.6231799, 55.7290315 ] } },
{ "type": "Feature", "properties": { "Id": "0537", "Address": "ул. Руставели, д.19 (ст. м. Бутырская)", "TotalElectricPlaces": 0, "TotalOrdinaryPlaces": 24, "TotalPlaces": 24, "IsOverflow": false, "IsLocked": false }, "geometry": { "type": "Point", "coordinates": [ 37.6011372, 55.8142078 ] } },
{ "type": "Feature", "properties": { "Id": "0046", "Address": "ул. Тверская, д.18", "TotalElectricPlaces": 0, "TotalOrdinaryPlaces": 12, "TotalPlaces": 12, "IsOverflow": false, "IsLocked": false }, "geometry": { "type": "Point", "coordinates": [ 37.6043076, 55.7657169 ] } },
{ "type": "Feature", "properties": { "Id": "0539", "Address": "Преображенская пл., д.12 (ст. м. Преображенская площадь)", "TotalElectricPlaces": 0, "TotalOrdinaryPlaces": 21, "TotalPlaces": 21, "IsOverflow": false, "IsLocked": false }, "geometry": { "type": "Point", "coordinates": [ 37.714144, 55.794816 ] } },
{ "type": "Feature", "properties": { "Id": "0631", "Address": "ул. Б. Каменщики, д.8", "TotalElectricPlaces": 0, "TotalOrdinaryPlaces": 15, "TotalPlaces": 15, "IsOverflow": false, "IsLocked": false }, "geometry": { "type": "Point", "coordinates": [ 37.65628, 55.735005 ] } },
{ "type": "Feature", "properties": { "Id": "0654", "Address": "Токмаков пер., д.12/20", "TotalElectricPlaces": 0, "TotalOrdinaryPlaces": 15, "TotalPlaces": 15, "IsOverflow": false, "IsLocked": false }, "geometry": { "type": "Point", "coordinates": [ 37.6698876, 55.7655969 ] } },
{ "type": "Feature", "properties": { "Id": "0656", "Address": "ул. Большая Почтовая, д.7, стр.1", "TotalElectricPlaces": 0, "TotalOrdinaryPlaces": 12, "TotalPlaces": 12, "IsOverflow": false, "IsLocked": false }, "geometry": { "type": "Point", "coordinates": [ 37.692317, 55.775968 ] } },
{ "type": "Feature", "properties": { "Id": "0682", "Address": "ст. м. Шипиловская (выход №5)", "TotalElectricPlaces": 0, "TotalOrdinaryPlaces": 12, "TotalPlaces": 12, "IsOverflow": false, "IsLocked": false }, "geometry": { "type": "Point", "coordinates": [ 37.7434632, 55.6220611 ] } },
{ "type": "Feature", "properties": { "Id": "0278", "Address": "Варшавское ш., д.12", "TotalElectricPlaces": 0, "TotalOrdinaryPlaces": 12, "TotalPlaces": 12, "IsOverflow": false, "IsLocked": false }, "geometry": { "type": "Point", "coordinates": [ 37.62041, 55.69684 ] } },
{ "type": "Feature", "properties": { "Id": "0280", "Address": "Варшавское ш., д.26 (ст. м. Нагатинская)", "TotalElectricPlaces": 0, "TotalOrdinaryPlaces": 12, "TotalPlaces": 12, "IsOverflow": false, "IsLocked": false }, "geometry": { "type": "Point", "coordinates": [ 37.62275, 55.68397 ] } },
{ "type": "Feature", "properties": { "Id": "0273", "Address": "ул. Орджоникидзе (напротив д.5)", "TotalElectricPlaces": 0, "TotalOrdinaryPlaces": 12, "TotalPlaces": 12, "IsOverflow": false, "IsLocked": false }, "geometry": { "type": "Point", "coordinates": [ 37.60075, 55.7107 ] } },
{ "type": "Feature", "properties": { "Id": "0533", "Address": "ул. Полковая, д.1, стр.2", "TotalElectricPlaces": 0, "TotalOrdinaryPlaces": 12, "TotalPlaces": 12, "IsOverflow": false, "IsLocked": false }, "geometry": { "type": "Point", "coordinates": [ 37.602618, 55.798216 ] } },
{ "type": "Feature", "properties": { "Id": "0520", "Address": "ст. м. Динамо (южный выход)", "TotalElectricPlaces": 0, "TotalOrdinaryPlaces": 21, "TotalPlaces": 21, "IsOverflow": false, "IsLocked": false }, "geometry": { "type": "Point", "coordinates": [ 37.55936, 55.78894 ] } },